[
    {
        "id": "p5vjmtsAhklqAAA4qpo1bQ",
        "cuisine": "american",
        "name": "Pop's Eat-Rite",
        "address": "123 St Marks Pl",
        "latitude": 40.726996,
        "longitude": -73.983388,
        "review_count": 14,
        "rating": 5.0,
        "zip_code": "10009"
    },
    {
        "id": "UkfkaVhQCqtKSRJ3PeX7Ig",
        "cuisine": "american",
        "name": "The Carroll",
        "address": "502 Henry St",
        "latitude": 40.68406,
        "longitude": -73.99957,
        "review_count": 2,
        "rating": 5.0,
        "zip_code": "11231"
    },
    {
        "id": "xt4sa64WOrpJvZBDPNPNYg",
        "cuisine": "american",
        "name": "Jacob's Pickles",
        "address": "509 Amsterdam Ave",
        "latitude": 40.7866504411994,
        "longitude": -73.9755284786224,
        "review_count": 4239,
        "rating": 4.0,
        "zip_code": "10024"
    },
    {
        "id": "0E88FeLyv-DRNM9CHN1Zlw",
        "cuisine": "american",
        "name": "Fork Off",
        "address": "42-25 A Vernon Blvd",
        "latitude": 40.75319,
        "longitude": -73.94964,
        "review_count": 2,
        "rating": 5.0,
        "zip_code": "11101"
    },
    {
        "id": "clNwADxHkEgI8Vx0F5xhBQ",
        "cuisine": "american",
        "name": "Golden Corral",
        "address": "2375 E Tremont Ave",
        "latitude": 40.84258,
        "longitude": -73.85529,
        "review_count": 18,
        "rating": 4.0,
        "zip_code": "10462"
    },
    {
        "id": "QzKASdqNpVXkVUgb_uX43g",
        "cuisine": "american",
        "name": "Horn\u2019s Hook Tavern",
        "address": "1589 First Ave",
        "latitude": 40.774799,
        "longitude": -73.95116,
        "review_count": 17,
        "rating": 4.5,
        "zip_code": "10028"
    },
    {
        "id": "J3NT61-AH5d5Gu5tFJhYSw",
        "cuisine": "american",
        "name": "The Cabin NYC",
        "address": "205 E 4th St",
        "latitude": 40.72393,
        "longitude": -73.98383,
        "review_count": 232,
        "rating": 4.0,
        "zip_code": "10009"
    },
    {
        "id": "MKMx5TAmzXfjgLdXgu6FVQ",
        "cuisine": "american",
        "name": "South Brooklyn Foundry",
        "address": "6909 3rd Ave",
        "latitude": 40.63539,
        "longitude": -74.02602,
        "review_count": 288,
        "rating": 4.5,
        "zip_code": "11209"
    },
    {
        "id": "VfT_M4kg0C9xFMDOa3Z8qw",
        "cuisine": "american",
        "name": "Something  Good in Brooklyn",
        "address": "25 Bond St",
        "latitude": 40.68891,
        "longitude": -73.98334,
        "review_count": 14,
        "rating": 4.5,
        "zip_code": "11201"
    },
    {
        "id": "RfxOtJ4SQmEeVX_XjFLWUQ",
        "cuisine": "american",
        "name": "Otis",
        "address": "18 Harrison Pl",
        "latitude": 40.706011,
        "longitude": -73.932598,
        "review_count": 316,
        "rating": 5.0,
        "zip_code": "11206"
    },
    {
        "id": "IOHaEgK1zDvUvB3SfKuGCw",
        "cuisine": "american",
        "name": "Parker & Quinn",
        "address": "64 W 39th St",
        "latitude": 40.7525862175813,
        "longitude": -73.9850713153442,
        "review_count": 1354,
        "rating": 4.0,
        "zip_code": "10018"
    },
    {
        "id": "C-8mGN7lt5rIraO5n-15ug",
        "cuisine": "american",
        "name": "The Smith",
        "address": "956 2nd Ave",
        "latitude": 40.755165,
        "longitude": -73.967868,
        "review_count": 2657,
        "rating": 4.0,
        "zip_code": "10022"
    },
    {
        "id": "G1PS0kMwepei5h29ZbRo_A",
        "cuisine": "american",
        "name": "Biggie's Cafe",
        "address": "79 Clinton St",
        "latitude": 40.718911,
        "longitude": -73.985268,
        "review_count": 5,
        "rating": 5.0,
        "zip_code": "10002"
    },
    {
        "id": "Xd_l7jtUAZZAAvK8-mI2Jw",
        "cuisine": "american",
        "name": "The Smith",
        "address": "1150 Broadway",
        "latitude": 40.74424,
        "longitude": -73.98878,
        "review_count": 1006,
        "rating": 4.0,
        "zip_code": "10010"
    },
    {
        "id": "AA9wpuJRhkSHUePAiv3otA",
        "cuisine": "american",
        "name": "The Leroy House",
        "address": "430 Hudson St",
        "latitude": 40.73063,
        "longitude": -74.00661,
        "review_count": 85,
        "rating": 4.5,
        "zip_code": "10014"
    },
    {
        "id": "_EBQhV-UQ7NoV66uXYH0dw",
        "cuisine": "american",
        "name": "Golden Diner",
        "address": "123 Madison St",
        "latitude": 40.71244,
        "longitude": -73.994,
        "review_count": 157,
        "rating": 4.5,
        "zip_code": "10002"
    },
    {
        "id": "_LWMvrtyqhA-PRRZaR2TdA",
        "cuisine": "american",
        "name": "The Hawthorn",
        "address": "505-507 W 23rd St",
        "latitude": 40.74796,
        "longitude": -74.00439,
        "review_count": 2,
        "rating": 5.0,
        "zip_code": "10011"
    },
    {
        "id": "q11TljTQd33XCWlVoPyRqg",
        "cuisine": "american",
        "name": "The Osprey",
        "address": "60 Furman St",
        "latitude": 40.702241,
        "longitude": -73.995539,
        "review_count": 224,
        "rating": 4.0,
        "zip_code": "11201"
    },
    {
        "id": "mc7WAD98zV2KG-WwOFyfFw",
        "cuisine": "american",
        "name": "American Grill NYC",
        "address": "2987 Third Ave",
        "latitude": 40.8188876,
        "longitude": -73.9142775,
        "review_count": 11,
        "rating": 4.5,
        "zip_code": "10455"
    },
    {
        "id": "txSykTj5nbwmpiVNoK_Dyg",
        "cuisine": "american",
        "name": "Blue Ribbon Brasserie - SoHo",
        "address": "97 Sullivan St",
        "latitude": 40.725456,
        "longitude": -74.003027,
        "review_count": 936,
        "rating": 4.5,
        "zip_code": "10012"
    },
    {
        "id": "Ixh8PpRS3D-xpXPqBf8OBA",
        "cuisine": "american",
        "name": "Chez Nick",
        "address": "1737 York Ave",
        "latitude": 40.779014,
        "longitude": -73.945238,
        "review_count": 50,
        "rating": 5.0,
        "zip_code": "10128"
    },
    {
        "id": "mVN2G1c5bRtAsNlr2Tbx6Q",
        "cuisine": "american",
        "name": "White Oak Tavern",
        "address": "21 Waverly Pl",
        "latitude": 40.730379,
        "longitude": -73.99462,
        "review_count": 360,
        "rating": 4.0,
        "zip_code": "10003"
    },
    {
        "id": "8wMJdpw2R_4VfS55itB_gQ",
        "cuisine": "american",
        "name": "Sweetwater Restaurant",
        "address": "105 N 6th St",
        "latitude": 40.7184736,
        "longitude": -73.9600178,
        "review_count": 372,
        "rating": 4.0,
        "zip_code": "11249"
    },
    {
        "id": "0IwdwNnbro5RLLIlaxyfpQ",
        "cuisine": "american",
        "name": "The Wilson",
        "address": "132 W 27th St",
        "latitude": 40.74587,
        "longitude": -73.99265,
        "review_count": 165,
        "rating": 4.5,
        "zip_code": "10001"
    },
    {
        "id": "cSRzfprFfAnT1nAcQMgrDA",
        "cuisine": "american",
        "name": "Fred's Restaurant",
        "address": "476 Amsterdam Ave",
        "latitude": 40.7856233,
        "longitude": -73.9767067,
        "review_count": 771,
        "rating": 4.0,
        "zip_code": "10024"
    },
    {
        "id": "PYmjoid5P-Mw8dkkKxZy6w",
        "cuisine": "american",
        "name": "Harvest Kitchen",
        "address": "269 Columbus Ave",
        "latitude": 40.777697,
        "longitude": -73.978357,
        "review_count": 131,
        "rating": 4.0,
        "zip_code": "10023"
    },
    {
        "id": "9phYK1esfjNkdd5UPIt9_w",
        "cuisine": "american",
        "name": "Fulton Burger",
        "address": "17 Old Fulton St",
        "latitude": 40.702801,
        "longitude": -73.993492,
        "review_count": 2,
        "rating": 4.5,
        "zip_code": "10038"
    },
    {
        "id": "LHxZgTddXIp_S1sL3nNG9w",
        "cuisine": "american",
        "name": "Park Avenue Tavern",
        "address": "99 Park Ave",
        "latitude": 40.75031,
        "longitude": -73.9783999,
        "review_count": 771,
        "rating": 4.0,
        "zip_code": "10016"
    },
    {
        "id": "UZ7C31NlfVQiUamJYbsiGA",
        "cuisine": "american",
        "name": "Kind Of Soul",
        "address": "497 Atlantic Ave",
        "latitude": 40.68573,
        "longitude": -73.9813,
        "review_count": 80,
        "rating": 4.5,
        "zip_code": "11217"
    },
    {
        "id": "ZMfRwxL_Na0rnFQN6gM40Q",
        "cuisine": "american",
        "name": "Bonnie's Grill",
        "address": "278 5th Ave",
        "latitude": 40.67431,
        "longitude": -73.98221,
        "review_count": 710,
        "rating": 4.0,
        "zip_code": "11215"
    },
    {
        "id": "3kqGCsIwLwhzWvgyFK6yow",
        "cuisine": "american",
        "name": "Greenwich Sports Tavern Village",
        "address": "1 7th Ave S",
        "latitude": 40.729714,
        "longitude": -74.004792,
        "review_count": 26,
        "rating": 4.5,
        "zip_code": "10014"
    },
    {
        "id": "Tp0dQWXC7hsO55Exf_YpPg",
        "cuisine": "american",
        "name": "Wynwood",
        "address": "24 Navy Pier Ct",
        "latitude": 40.6287643478843,
        "longitude": -74.0739422522633,
        "review_count": 3,
        "rating": 3.5,
        "zip_code": "10304"
    },
    {
        "id": "mWS4umRg2AyykyAClMrIRw",
        "cuisine": "american",
        "name": "The Penrose",
        "address": "1590 2nd Ave",
        "latitude": 40.775427,
        "longitude": -73.953115,
        "review_count": 1193,
        "rating": 4.0,
        "zip_code": "10028"
    },
    {
        "id": "XsElXaLxUPKquI78poB8yw",
        "cuisine": "american",
        "name": "Maison Pickle",
        "address": "2315 Broadway",
        "latitude": 40.7870473,
        "longitude": -73.9781361,
        "review_count": 1002,
        "rating": 4.0,
        "zip_code": "10024"
    },
    {
        "id": "uYLIo8FCr9Ug5SFORDdsPA",
        "cuisine": "american",
        "name": "The Burgary",
        "address": "67 Clinton St",
        "latitude": 40.7193370804105,
        "longitude": -73.9850228946549,
        "review_count": 259,
        "rating": 4.5,
        "zip_code": "10002"
    },
    {
        "id": "GpWXEpVyehmKP2WQsD_Y8g",
        "cuisine": "american",
        "name": "OTB",
        "address": "141 Broadway",
        "latitude": 40.710484,
        "longitude": -73.963408,
        "review_count": 140,
        "rating": 4.5,
        "zip_code": "11211"
    },
    {
        "id": "Iv43DyQhKL8QdtBK16Qfeg",
        "cuisine": "american",
        "name": "Yardsale Cafe",
        "address": "620 5th Ave",
        "latitude": 40.663478,
        "longitude": -73.99145,
        "review_count": 7,
        "rating": 5.0,
        "zip_code": "11215"
    },
    {
        "id": "56qlj1cYlqNzmG0xllGg-w",
        "cuisine": "american",
        "name": "Westville Dumbo",
        "address": "81 Washington St",
        "latitude": 40.7017969340086,
        "longitude": -73.9896315336227,
        "review_count": 303,
        "rating": 4.0,
        "zip_code": "11201"
    },
    {
        "id": "ULt3kmA0_hbZ3j6cMORCaA",
        "cuisine": "american",
        "name": "Root & Bone",
        "address": "200 E 3rd St",
        "latitude": 40.7228079872831,
        "longitude": -73.9833535829059,
        "review_count": 1618,
        "rating": 4.0,
        "zip_code": "10009"
    },
    {
        "id": "mHBhUxHgDGjsB1LJl4qW0w",
        "cuisine": "american",
        "name": "Hillstone Restaurant",
        "address": "888 3rd Ave",
        "latitude": 40.758352,
        "longitude": -73.969112,
        "review_count": 1099,
        "rating": 4.0,
        "zip_code": "10022"
    },
    {
        "id": "JEuIdK9hzci9g_TuwfnZ_w",
        "cuisine": "american",
        "name": "Society Cafe",
        "address": "52 W 13th St",
        "latitude": 40.7362063,
        "longitude": -73.9965962,
        "review_count": 178,
        "rating": 4.0,
        "zip_code": "10011"
    },
    {
        "id": "Cz6It2NB_QBXCjnlsWGZSA",
        "cuisine": "american",
        "name": "Boulton & Watt",
        "address": "5 Ave A",
        "latitude": 40.7224963,
        "longitude": -73.986439,
        "review_count": 675,
        "rating": 4.0,
        "zip_code": "10009"
    },
    {
        "id": "JYNBy2r3LVhJbLHE1bASfg",
        "cuisine": "american",
        "name": "The Smith",
        "address": "1900 Broadway",
        "latitude": 40.7716201269986,
        "longitude": -73.9818377981476,
        "review_count": 1713,
        "rating": 4.0,
        "zip_code": "10023"
    },
    {
        "id": "w4cFJhUpjGXqqWBd3BbY4w",
        "cuisine": "american",
        "name": "Freemans",
        "address": "Freeman Alley",
        "latitude": 40.721988,
        "longitude": -73.992466,
        "review_count": 2060,
        "rating": 4.0,
        "zip_code": "10002"
    },
    {
        "id": "1ExwosnCMtb7D3SF5ovo6w",
        "cuisine": "american",
        "name": "The Pomeroy",
        "address": "36-12 Ditmars Blvd",
        "latitude": 40.7739,
        "longitude": -73.908,
        "review_count": 262,
        "rating": 4.5,
        "zip_code": "11105"
    },
    {
        "id": "xkvv0n7jbl4Ra3Vm_jfxaA",
        "cuisine": "american",
        "name": "Upland",
        "address": "345 Park Ave S",
        "latitude": 40.7418912,
        "longitude": -73.9846396,
        "review_count": 1017,
        "rating": 4.0,
        "zip_code": "10010"
    },
    {
        "id": "LpVbI-E9C-CSp7WhU5h2Iw",
        "cuisine": "american",
        "name": "Fishmarket Restaurant",
        "address": "111 South St",
        "latitude": 40.70717,
        "longitude": -74.00192,
        "review_count": 549,
        "rating": 4.5,
        "zip_code": "10038"
    },
    {
        "id": "z5hRX3iJ5Ty_S38iG_WY3Q",
        "cuisine": "american",
        "name": "Tanner Smiths",
        "address": "204 W 55th St",
        "latitude": 40.76442,
        "longitude": -73.98169,
        "review_count": 1748,
        "rating": 4.5,
        "zip_code": "10019"
    },
    {
        "id": "OtHJp8-Nw1rtoKdzkoVPxQ",
        "cuisine": "american",
        "name": "Three Guys Restaurant",
        "address": "960 Madison Ave",
        "latitude": 40.7741355895996,
        "longitude": -73.9640731811523,
        "review_count": 96,
        "rating": 3.0,
        "zip_code": "10021"
    },
    {
        "id": "UILT56veNs63NASF3dGRKA",
        "cuisine": "american",
        "name": "Fieldtrip",
        "address": "109 Malcolm X Blvd",
        "latitude": 40.80165,
        "longitude": -73.95029,
        "review_count": 117,
        "rating": 4.5,
        "zip_code": "10026"
    },
    {
        "id": "fEig4z0y_qCMRLvW7HRuqA",
        "cuisine": "american",
        "name": "Harding's",
        "address": "32 E 21st St",
        "latitude": 40.7393229,
        "longitude": -73.9887163,
        "review_count": 359,
        "rating": 4.0,
        "zip_code": "10010"
    },
    {
        "id": "4LoroCI3VtQ17dyQa75-Rg",
        "cuisine": "american",
        "name": "The Warren",
        "address": "131 Christopher St",
        "latitude": 40.7331,
        "longitude": -74.0067,
        "review_count": 225,
        "rating": 4.0,
        "zip_code": "10014"
    },
    {
        "id": "I8U2B8O3uXhhXYhRrOH_Xg",
        "cuisine": "american",
        "name": "The OX Tavern",
        "address": "1301 Newkirk Ave",
        "latitude": 40.63489,
        "longitude": -73.96497,
        "review_count": 521,
        "rating": 4.0,
        "zip_code": "11230"
    },
    {
        "id": "VCqNjupCWZ5INzOcyBMJSg",
        "cuisine": "american",
        "name": "The Grey Dog - Union Square",
        "address": "90 University Pl",
        "latitude": 40.733828,
        "longitude": -73.993052,
        "review_count": 1062,
        "rating": 4.0,
        "zip_code": "10003"
    },
    {
        "id": "vJXswY5u9rcMRrYZukpMbQ",
        "cuisine": "american",
        "name": "Mad River Bar & Grille",
        "address": "1442 3rd Ave",
        "latitude": 40.77614,
        "longitude": -73.95616,
        "review_count": 335,
        "rating": 4.0,
        "zip_code": "10028"
    },
    {
        "id": "7Bb_IDWV_zJqpBjAvxuBIA",
        "cuisine": "american",
        "name": "Cooper's Craft & Kitchen",
        "address": "87 2nd Ave",
        "latitude": 40.72704,
        "longitude": -73.9892,
        "review_count": 433,
        "rating": 4.0,
        "zip_code": "10003"
    },
    {
        "id": "DynFEEWtMX76qeqviUbOdA",
        "cuisine": "american",
        "name": "Mille Nonne",
        "address": "88 Essex St",
        "latitude": 40.71821,
        "longitude": -73.98815,
        "review_count": 36,
        "rating": 4.5,
        "zip_code": "10002"
    },
    {
        "id": "3idAtiEXe_XfTcPoZC_DcQ",
        "cuisine": "american",
        "name": "Westville East",
        "address": "173 Ave A",
        "latitude": 40.72847,
        "longitude": -73.98213,
        "review_count": 1050,
        "rating": 4.0,
        "zip_code": "10009"
    },
    {
        "id": "k5NAz3-goMXKoUqPfOZ1Hw",
        "cuisine": "american",
        "name": "The Smith",
        "address": "55 3rd Ave",
        "latitude": 40.730957886229,
        "longitude": -73.9886217,
        "review_count": 1966,
        "rating": 3.5,
        "zip_code": "10003"
    },
    {
        "id": "ioUJB91aFWxlV--opOtVvA",
        "cuisine": "american",
        "name": "Leslie's Kitchen",
        "address": "109 Wilson Ave",
        "latitude": 40.70136,
        "longitude": -73.92663,
        "review_count": 49,
        "rating": 4.5,
        "zip_code": "11237"
    },
    {
        "id": "55spA8dSOvKRme3ix-k7gg",
        "cuisine": "american",
        "name": "Westville West",
        "address": "210 W 10th St",
        "latitude": 40.7340046,
        "longitude": -74.0041863,
        "review_count": 926,
        "rating": 4.0,
        "zip_code": "10014"
    },
    {
        "id": "PWxky1zhv7gqdhXi8Pk6DA",
        "cuisine": "american",
        "name": "Caf\u00e9 Salmagundi",
        "address": "51 Irving Pl",
        "latitude": 40.7362,
        "longitude": -73.987525,
        "review_count": 9,
        "rating": 5.0,
        "zip_code": "10003"
    },
    {
        "id": "8mmM20X369_Do04kW7-TTA",
        "cuisine": "american",
        "name": "Holy Cow",
        "address": "34 Canal St",
        "latitude": 40.7143638,
        "longitude": -73.9906935,
        "review_count": 271,
        "rating": 4.0,
        "zip_code": "10002"
    },
    {
        "id": "ssGhu4n3emZ9kEPVf371IQ",
        "cuisine": "american",
        "name": "Cookshop",
        "address": "156 10th Ave",
        "latitude": 40.7454251,
        "longitude": -74.0056084,
        "review_count": 2109,
        "rating": 4.0,
        "zip_code": "10011"
    },
    {
        "id": "54SrQVVhGcvfuIkFabQ8KQ",
        "cuisine": "american",
        "name": "P.J. Clarke's",
        "address": "915 Third Ave",
        "latitude": 40.7589148,
        "longitude": -73.9680336,
        "review_count": 899,
        "rating": 3.5,
        "zip_code": "10022"
    },
    {
        "id": "01isnBO1rFO2LTOeNfYl9w",
        "cuisine": "american",
        "name": "Hillstone Restaurant",
        "address": "378 Park Ave S",
        "latitude": 40.7427534,
        "longitude": -73.9847308,
        "review_count": 950,
        "rating": 4.0,
        "zip_code": "10010"
    },
    {
        "id": "RQnrX6ahcMO1n7mSd6OFdA",
        "cuisine": "american",
        "name": "The Local MRKT",
        "address": "66-75 Selfridge St",
        "latitude": 40.7171766,
        "longitude": -73.8569762,
        "review_count": 13,
        "rating": 5.0,
        "zip_code": "11375"
    },
    {
        "id": "8SehQovJOuQDLbtzLLYLyw",
        "cuisine": "american",
        "name": "RH Rooftop Restaurant New York",
        "address": "9 9th Ave",
        "latitude": 40.73985,
        "longitude": -74.00639,
        "review_count": 330,
        "rating": 4.0,
        "zip_code": "10014"
    },
    {
        "id": "veq1Bl1DW3UWMekZJUsG1Q",
        "cuisine": "american",
        "name": "Gramercy Tavern",
        "address": "42 E 20th St",
        "latitude": 40.73844,
        "longitude": -73.98825,
        "review_count": 2921,
        "rating": 4.5,
        "zip_code": "10003"
    },
    {
        "id": "8JDwcklaawqYprHg0c9aIA",
        "cuisine": "american",
        "name": "The Brooklyn Tree",
        "address": "188 Montrose Ave",
        "latitude": 40.70734,
        "longitude": -73.94186,
        "review_count": 161,
        "rating": 4.5,
        "zip_code": "11206"
    },
    {
        "id": "8lHTKVJyiK9V8WiJq9-khQ",
        "cuisine": "american",
        "name": "Midwood Flats",
        "address": "577 Flatbush Ave",
        "latitude": 40.6596512,
        "longitude": -73.9603844,
        "review_count": 269,
        "rating": 4.0,
        "zip_code": "11225"
    },
    {
        "id": "x7hsZRd_MyrUgAW91FM9qA",
        "cuisine": "american",
        "name": "Benson's NYC",
        "address": "181 Essex St",
        "latitude": 40.7218302,
        "longitude": -73.9866963,
        "review_count": 389,
        "rating": 4.5,
        "zip_code": "10002"
    },
    {
        "id": "lVxpytILknL12ykhGpoENQ",
        "cuisine": "american",
        "name": "Nostro East Village",
        "address": "75 2nd Ave",
        "latitude": 40.726591,
        "longitude": -73.9895454,
        "review_count": 75,
        "rating": 4.5,
        "zip_code": "10003"
    },
    {
        "id": "Oq1mej1BYfjcdPKkM_5o8g",
        "cuisine": "american",
        "name": "High Street On Hudson",
        "address": "637 Hudson St",
        "latitude": 40.73888,
        "longitude": -74.00574,
        "review_count": 412,
        "rating": 4.0,
        "zip_code": "10014"
    },
    {
        "id": "HYoPErHY9ZvtfXXCDmDOhw",
        "cuisine": "american",
        "name": "Brooklyn Beef N\u2019 Cheese",
        "address": "70 Pine St",
        "latitude": 40.706506,
        "longitude": -74.007752,
        "review_count": 6,
        "rating": 5.0,
        "zip_code": "10005"
    },
    {
        "id": "qOp4T7UxfL6MgO41dN3Qlg",
        "cuisine": "american",
        "name": "Whitman's",
        "address": "406 E 9th St",
        "latitude": 40.727942,
        "longitude": -73.984469,
        "review_count": 625,
        "rating": 4.0,
        "zip_code": "10009"
    },
    {
        "id": "MctQwL9Mp5X7DJk13VoERg",
        "cuisine": "american",
        "name": "Westville Chelsea",
        "address": "246 W 18th St",
        "latitude": 40.74175,
        "longitude": -74.00007,
        "review_count": 1120,
        "rating": 4.0,
        "zip_code": "10011"
    },
    {
        "id": "rrsjcQVLg2PkIkO_vPjOLw",
        "cuisine": "american",
        "name": "The Bonnie",
        "address": "29-12 23rd Ave",
        "latitude": 40.7746737,
        "longitude": -73.9136003,
        "review_count": 635,
        "rating": 4.0,
        "zip_code": "11105"
    },
    {
        "id": "P7yE1T1TDFIiYgLdEYR3Gw",
        "cuisine": "american",
        "name": "Bill's Townhouse",
        "address": "57 E 54th St",
        "latitude": 40.7602615356445,
        "longitude": -73.9729461669922,
        "review_count": 112,
        "rating": 4.5,
        "zip_code": "10022"
    },
    {
        "id": "6G0urbBDz_CnYnGXApgUcw",
        "cuisine": "american",
        "name": "Boutros",
        "address": "185 Atlantic Ave",
        "latitude": 40.6901481293837,
        "longitude": -73.9935445412993,
        "review_count": 123,
        "rating": 4.5,
        "zip_code": "11201"
    },
    {
        "id": "PnGSE8JGbMZKtdHi9go7Kg",
        "cuisine": "american",
        "name": "The Milling Room",
        "address": "446 Columbus Ave",
        "latitude": 40.7835485472543,
        "longitude": -73.9744088718635,
        "review_count": 474,
        "rating": 4.0,
        "zip_code": "10024"
    },
    {
        "id": "0yMlU3xbdawYFXmjNc0dhw",
        "cuisine": "american",
        "name": "The Harrow New York",
        "address": "720 10th Ave",
        "latitude": 40.76419,
        "longitude": -73.99182,
        "review_count": 218,
        "rating": 4.5,
        "zip_code": "10019"
    },
    {
        "id": "ZPOqgLIM-RyJNWm_RWKbfw",
        "cuisine": "american",
        "name": "Dig",
        "address": "691 Broadway",
        "latitude": 40.72829,
        "longitude": -73.99453,
        "review_count": 36,
        "rating": 4.0,
        "zip_code": "10012"
    },
    {
        "id": "zX8IF7oCbw1HrNaPmOBy-g",
        "cuisine": "american",
        "name": "FERNS",
        "address": "166 1st Ave",
        "latitude": 40.72881,
        "longitude": -73.98403,
        "review_count": 89,
        "rating": 4.5,
        "zip_code": "10009"
    },
    {
        "id": "DRitJoNGTkHXZvH_YpLIAw",
        "cuisine": "american",
        "name": "Marc Forgione",
        "address": "134 Reade St",
        "latitude": 40.71647,
        "longitude": -74.0095599,
        "review_count": 927,
        "rating": 4.5,
        "zip_code": "10013"
    },
    {
        "id": "00kdvS6FY0gTN5BV03tx5Q",
        "cuisine": "american",
        "name": "Peak",
        "address": "30 Hudson Yards",
        "latitude": 40.7541644,
        "longitude": -74.0009082,
        "review_count": 6,
        "rating": 4.5,
        "zip_code": "10001"
    },
    {
        "id": "gvWzAiMrFm9AgfSN2I8Miw",
        "cuisine": "american",
        "name": "Ivy",
        "address": "944 8th Ave",
        "latitude": 40.765751,
        "longitude": -73.983167,
        "review_count": 403,
        "rating": 4.0,
        "zip_code": "10019"
    },
    {
        "id": "YfB7r67NbrFpuret7TTtBQ",
        "cuisine": "american",
        "name": "David Burke TImeout Market",
        "address": "55 Water St",
        "latitude": 40.7034191,
        "longitude": -73.992147,
        "review_count": 1,
        "rating": 4.0,
        "zip_code": "11201"
    },
    {
        "id": "qFTiaH6kiMVzeWFc33isIg",
        "cuisine": "american",
        "name": "Wicked Jane",
        "address": "15 West 8th St",
        "latitude": 40.732765,
        "longitude": -73.997284,
        "review_count": 23,
        "rating": 5.0,
        "zip_code": "10011"
    },
    {
        "id": "um0U71kITL1NtD4Am6D8Mg",
        "cuisine": "american",
        "name": "New Yee Li",
        "address": "6619 Fort Hamilton Pkwy",
        "latitude": 40.6297913226164,
        "longitude": -74.0102203479377,
        "review_count": 14,
        "rating": 4.0,
        "zip_code": "11219"
    },
    {
        "id": "xMUZfoyzyJoTfZxrEZus4Q",
        "cuisine": "american",
        "name": "Mom's Kitchen & Bar",
        "address": "701 9th Ave",
        "latitude": 40.76247,
        "longitude": -73.9901,
        "review_count": 737,
        "rating": 4.5,
        "zip_code": "10019"
    },
    {
        "id": "0Y3hD2YtNe165VRFKUixZw",
        "cuisine": "american",
        "name": "brooklyn steak & lobster",
        "address": "220 36th St",
        "latitude": 40.65663,
        "longitude": -74.00843,
        "review_count": 23,
        "rating": 4.5,
        "zip_code": "11232"
    },
    {
        "id": "6hw4ibsutVoMl_RK0aAJ7Q",
        "cuisine": "american",
        "name": "The Black Derby",
        "address": "310 W 4th St",
        "latitude": 40.737266,
        "longitude": -74.00399,
        "review_count": 187,
        "rating": 4.5,
        "zip_code": "10014"
    },
    {
        "id": "Kgf2O5qRqSpPv8E346J8jQ",
        "cuisine": "american",
        "name": "Prospect Bar & Grill",
        "address": "545 5th Ave",
        "latitude": 40.665832,
        "longitude": -73.988916,
        "review_count": 150,
        "rating": 4.0,
        "zip_code": "11215"
    },
    {
        "id": "rOS48E6ZYhdNWzGRlh4MTA",
        "cuisine": "american",
        "name": "Astoria Bier and Cheese",
        "address": "35-11 Ditmars Blvd",
        "latitude": 40.7746133,
        "longitude": -73.9085021,
        "review_count": 129,
        "rating": 4.5,
        "zip_code": "11105"
    },
    {
        "id": "6gzQLjzJk25ePm_JS7ZAug",
        "cuisine": "american",
        "name": "Esme",
        "address": "999 Manhattan Ave",
        "latitude": 40.7332033928175,
        "longitude": -73.9549667724914,
        "review_count": 343,
        "rating": 4.5,
        "zip_code": "11222"
    },
    {
        "id": "E_JmgVNSkNvRauDZGuf6AA",
        "cuisine": "american",
        "name": "Effy's Kitchen",
        "address": "1567 Lexington Ave",
        "latitude": 40.78845,
        "longitude": -73.94871,
        "review_count": 236,
        "rating": 4.0,
        "zip_code": "10029"
    },
    {
        "id": "kcywDOgRlBPLW3eTMUgxEw",
        "cuisine": "american",
        "name": "Grand Canyon Restaurant",
        "address": "143 Montague St",
        "latitude": 40.69473,
        "longitude": -73.99361,
        "review_count": 72,
        "rating": 4.5,
        "zip_code": "11201"
    },
    {
        "id": "np98mkA22LYf6kCwCL59pw",
        "cuisine": "american",
        "name": "Rabbithole Restaurant",
        "address": "352 Bedford Ave",
        "latitude": 40.7122932799856,
        "longitude": -73.9628687873483,
        "review_count": 846,
        "rating": 4.0,
        "zip_code": "11211"
    },
    {
        "id": "q1uIqB8PvyCCX8TajaRYBg",
        "cuisine": "american",
        "name": "The Little Owl",
        "address": "90 Bedford St",
        "latitude": 40.7323808291402,
        "longitude": -74.0053009986877,
        "review_count": 1279,
        "rating": 4.0,
        "zip_code": "10014"
    },
    {
        "id": "YOOZjCcC4s1MOBtFsaMB8w",
        "cuisine": "american",
        "name": "The Richmond",
        "address": "695 Bay St",
        "latitude": 40.62508,
        "longitude": -74.07463,
        "review_count": 125,
        "rating": 4.5,
        "zip_code": "10304"
    },
    {
        "id": "TaCT9t5HoJVzCAVFIRL-NA",
        "cuisine": "american",
        "name": "Sugar N Coal",
        "address": "63-12 Broadway",
        "latitude": 40.7496289,
        "longitude": -73.8988583,
        "review_count": 54,
        "rating": 4.5,
        "zip_code": "11377"
    },
    {
        "id": "fwH7iD4-xY2ABrlZznP8CA",
        "cuisine": "american",
        "name": "Quality Eats",
        "address": "1496 2nd Ave 78th St",
        "latitude": 40.7725103168192,
        "longitude": -73.9554501324892,
        "review_count": 265,
        "rating": 3.5,
        "zip_code": "10075"
    },
    {
        "id": "D2qV8sDdHEFlHbVz7VSHRQ",
        "cuisine": "american",
        "name": "Black Tap - Soho",
        "address": "529 Broome St",
        "latitude": 40.723794,
        "longitude": -74.004193,
        "review_count": 1187,
        "rating": 3.5,
        "zip_code": "10013"
    },
    {
        "id": "N5UY113nNpeKdLPv0cbMjQ",
        "cuisine": "american",
        "name": "The Wild Son",
        "address": "132 First Ave",
        "latitude": 40.727424,
        "longitude": -73.985201,
        "review_count": 493,
        "rating": 4.5,
        "zip_code": "10009"
    },
    {
        "id": "fVbUVAiLiGgLA_nxBFxyww",
        "cuisine": "american",
        "name": "Thursday Kitchen",
        "address": "424 E 9th St",
        "latitude": 40.7275,
        "longitude": -73.9838,
        "review_count": 1344,
        "rating": 4.5,
        "zip_code": "10009"
    },
    {
        "id": "FST41XVNfiBgJHkutII-3w",
        "cuisine": "american",
        "name": "American Retro",
        "address": "714 11th Ave",
        "latitude": 40.76618,
        "longitude": -73.99409,
        "review_count": 209,
        "rating": 4.0,
        "zip_code": "10019"
    },
    {
        "id": "AkRdoWYv2QmsXD9LSWl2zw",
        "cuisine": "american",
        "name": "Dinerbar",
        "address": "97-45 Queens Blvd",
        "latitude": 40.72958,
        "longitude": -73.85944,
        "review_count": 501,
        "rating": 4.0,
        "zip_code": "11374"
    },
    {
        "id": "t-tx9YJhKHZrzIn4DKziuQ",
        "cuisine": "american",
        "name": "983-Bushwick's Living Room",
        "address": "983 Flushing Ave",
        "latitude": 40.703087,
        "longitude": -73.933403,
        "review_count": 395,
        "rating": 4.0,
        "zip_code": "11206"
    },
    {
        "id": "JXcYD52B4190gIh6_RSXCg",
        "cuisine": "american",
        "name": "Lilly's Craft and Kitchen",
        "address": "675 9th Ave",
        "latitude": 40.76138,
        "longitude": -73.99071,
        "review_count": 1022,
        "rating": 4.0,
        "zip_code": "10036"
    },
    {
        "id": "3V20VbC45XL4TBYTL9DrOg",
        "cuisine": "american",
        "name": "David's Cafe",
        "address": "110 St Marks Pl",
        "latitude": 40.7269310030458,
        "longitude": -73.9843428879976,
        "review_count": 201,
        "rating": 4.0,
        "zip_code": "10009"
    },
    {
        "id": "eGfpa9r0aGtN3V8ZwgaOEw",
        "cuisine": "american",
        "name": "The Supply House",
        "address": "1647 2nd Ave",
        "latitude": 40.7775579,
        "longitude": -73.9521892,
        "review_count": 346,
        "rating": 4.0,
        "zip_code": "10028"
    },
    {
        "id": "t2h_VDI6kw7c1uHvyV-Grw",
        "cuisine": "american",
        "name": "Brasserie Saint Marc",
        "address": "136 2nd Ave",
        "latitude": 40.7286485,
        "longitude": -73.98720783,
        "review_count": 52,
        "rating": 4.5,
        "zip_code": "10003"
    },
    {
        "id": "J5y7oRfiGtxFDkYGKxFZkw",
        "cuisine": "american",
        "name": "Anella",
        "address": "222 Franklin St",
        "latitude": 40.73327,
        "longitude": -73.95786,
        "review_count": 417,
        "rating": 4.0,
        "zip_code": "11222"
    },
    {
        "id": "_HBpi2PIG8Zxz01Pr41MIw",
        "cuisine": "american",
        "name": "The Shady Lady",
        "address": "34-19 30th Ave",
        "latitude": 40.765619,
        "longitude": -73.9181399,
        "review_count": 855,
        "rating": 4.0,
        "zip_code": "11103"
    },
    {
        "id": "ej_pg-wc-ZtexQKPPiQ_5w",
        "cuisine": "american",
        "name": "The Edge Harlem",
        "address": "101 Edgecombe Ave",
        "latitude": 40.8199158,
        "longitude": -73.9460373,
        "review_count": 619,
        "rating": 4.0,
        "zip_code": "10030"
    },
    {
        "id": "unWoFZeSWa0DK1YMekO_Uw",
        "cuisine": "american",
        "name": "Trademark Taste + Grind",
        "address": "38 W 36th St",
        "latitude": 40.7503233942813,
        "longitude": -73.9855566306885,
        "review_count": 646,
        "rating": 4.5,
        "zip_code": "10018"
    },
    {
        "id": "OOoua3Q6PfqtImv3DjdcWw",
        "cuisine": "american",
        "name": "Parlay",
        "address": "4024 8th Ave",
        "latitude": 40.6464,
        "longitude": -73.99862,
        "review_count": 406,
        "rating": 4.5,
        "zip_code": "11232"
    },
    {
        "id": "f0a8KLFrijzkzaYacWT9Iw",
        "cuisine": "american",
        "name": "Whitman\u2019s SOHO",
        "address": "261 Hudson St",
        "latitude": 40.725126,
        "longitude": -74.007882,
        "review_count": 19,
        "rating": 4.0,
        "zip_code": "10013"
    },
    {
        "id": "fPJoi_TVRhjBdPYBZS6kXg",
        "cuisine": "american",
        "name": "Roll-N-Roaster",
        "address": "2901 Emmons Ave",
        "latitude": 40.5840481565596,
        "longitude": -73.9396257952115,
        "review_count": 1129,
        "rating": 4.0,
        "zip_code": "11235"
    },
    {
        "id": "zcPWqsiqaPpNh8nJXR4gpw",
        "cuisine": "american",
        "name": "The Commodore",
        "address": "366 Metropolitan Ave",
        "latitude": 40.7138257110445,
        "longitude": -73.9556050300598,
        "review_count": 577,
        "rating": 4.0,
        "zip_code": "11211"
    },
    {
        "id": "qHD05vCitNTTPMyvU2Sh7g",
        "cuisine": "american",
        "name": "Jook Sing",
        "address": "135B N 5th St",
        "latitude": 40.717064,
        "longitude": -73.9591041,
        "review_count": 46,
        "rating": 5.0,
        "zip_code": "11249"
    },
    {
        "id": "7qtIemPU3LlNix8CVWdhwA",
        "cuisine": "american",
        "name": "Clancey",
        "address": "79 Clinton St",
        "latitude": 40.7190299,
        "longitude": -73.98521,
        "review_count": 174,
        "rating": 4.5,
        "zip_code": "10002"
    },
    {
        "id": "xEF3Kvd0yw74pjnlFB2Sgg",
        "cuisine": "american",
        "name": "Nobody Told Me",
        "address": "951 Amsterdam Ave",
        "latitude": 40.80076,
        "longitude": -73.96507,
        "review_count": 106,
        "rating": 4.5,
        "zip_code": "10025"
    },
    {
        "id": "lcI9kOcRqxxMhM4b5pHqsg",
        "cuisine": "american",
        "name": "Dawa's",
        "address": "51-18 Skillman Ave",
        "latitude": 40.7456869,
        "longitude": -73.9126859,
        "review_count": 245,
        "rating": 4.5,
        "zip_code": "11377"
    },
    {
        "id": "qLLxS7RwNEjP_jq_KQrPfA",
        "cuisine": "american",
        "name": "Traif",
        "address": "229 S 4th St",
        "latitude": 40.710658,
        "longitude": -73.958872,
        "review_count": 1870,
        "rating": 4.5,
        "zip_code": "11211"
    },
    {
        "id": "gvrtlZAfkMY-kW_3nziB-A",
        "cuisine": "american",
        "name": "Burger Inc NYC - Brooklyn",
        "address": "135A N 5th St",
        "latitude": 40.7170970038509,
        "longitude": -73.9592721769131,
        "review_count": 23,
        "rating": 4.0,
        "zip_code": "11249"
    },
    {
        "id": "sDajjybHSYFw8gTVbknPGA",
        "cuisine": "american",
        "name": "Jack Doyle's Bar & Restaurant",
        "address": "240 W 35th St",
        "latitude": 40.752132,
        "longitude": -73.991852,
        "review_count": 330,
        "rating": 4.0,
        "zip_code": "10001"
    },
    {
        "id": "zWem2SAbFc7lIYR2y9DE0g",
        "cuisine": "american",
        "name": "Harlem Public",
        "address": "3612 Broadway",
        "latitude": 40.828717774457,
        "longitude": -73.9484412254424,
        "review_count": 973,
        "rating": 4.0,
        "zip_code": "10031"
    },
    {
        "id": "oopgHvduXbtgwNRmybEhgQ",
        "cuisine": "american",
        "name": "Sons of Essex",
        "address": "133 Essex St",
        "latitude": 40.720315,
        "longitude": -73.987774,
        "review_count": 1236,
        "rating": 4.0,
        "zip_code": "10002"
    },
    {
        "id": "hGo9KArKThuOKxNbwmNpoA",
        "cuisine": "american",
        "name": "Ruby's Cafe",
        "address": "219 Mulberry St",
        "latitude": 40.7223288,
        "longitude": -73.996326,
        "review_count": 1230,
        "rating": 4.0,
        "zip_code": "10012"
    },
    {
        "id": "bRPq-Nmct5bOuOtsu8fC7Q",
        "cuisine": "american",
        "name": "S'MAC",
        "address": "197 1st Ave",
        "latitude": 40.730212,
        "longitude": -73.983724,
        "review_count": 2189,
        "rating": 3.5,
        "zip_code": "10003"
    },
    {
        "id": "XpYm_l-zKI3Rl4E8WODIDA",
        "cuisine": "american",
        "name": "The Levee",
        "address": "212 Berry St",
        "latitude": 40.7163303847776,
        "longitude": -73.9617204666138,
        "review_count": 397,
        "rating": 4.0,
        "zip_code": "11211"
    },
    {
        "id": "_wT6ZuusWkBu3nN6h7N0mQ",
        "cuisine": "american",
        "name": "Battery Park Grille",
        "address": "21 S End Ave",
        "latitude": 40.70819,
        "longitude": -74.01779,
        "review_count": 2,
        "rating": 4.5,
        "zip_code": "10280"
    },
    {
        "id": "t7xqAMBQNH4ppsPSOMzFyg",
        "cuisine": "american",
        "name": "Treadwell Park",
        "address": "1125 1st Ave",
        "latitude": 40.7614,
        "longitude": -73.9609,
        "review_count": 441,
        "rating": 4.0,
        "zip_code": "10065"
    },
    {
        "id": "_0WFGjXuenlBixOlbSlGeQ",
        "cuisine": "american",
        "name": "Crown Shy",
        "address": "70 Pine St",
        "latitude": 40.7063449,
        "longitude": -74.0076944,
        "review_count": 284,
        "rating": 4.5,
        "zip_code": "10005"
    },
    {
        "id": "u-MUL83NUy2gsbV80WZnAA",
        "cuisine": "american",
        "name": "The Marshal",
        "address": "628 10th Ave",
        "latitude": 40.76122,
        "longitude": -73.99396,
        "review_count": 740,
        "rating": 4.0,
        "zip_code": "10036"
    },
    {
        "id": "Mhu-5t9bi1V0tUgf-LgE3g",
        "cuisine": "american",
        "name": "Haven Rooftop",
        "address": "132 W 47th St",
        "latitude": 40.758413,
        "longitude": -73.983292,
        "review_count": 842,
        "rating": 3.5,
        "zip_code": "10036"
    },
    {
        "id": "bxju4seaE8hE-HpLrBomgw",
        "cuisine": "american",
        "name": "Eats",
        "address": "1055 Lexington Ave",
        "latitude": 40.7722,
        "longitude": -73.96065,
        "review_count": 437,
        "rating": 3.5,
        "zip_code": "10021"
    },
    {
        "id": "03RL_VcRGXuICl2R6Luu_Q",
        "cuisine": "american",
        "name": "The Waterfront NYC",
        "address": "500 Hutchinson River Pkwy",
        "latitude": 40.8112556,
        "longitude": -73.8352813,
        "review_count": 20,
        "rating": 4.5,
        "zip_code": "10465"
    },
    {
        "id": "4KHjnRNvrkKHchEznhlnSA",
        "cuisine": "american",
        "name": "Sweet Chick",
        "address": "164 Bedford Ave",
        "latitude": 40.718371,
        "longitude": -73.95733,
        "review_count": 2018,
        "rating": 4.0,
        "zip_code": "11211"
    },
    {
        "id": "pfmAcS-g6SiNG0KlLvrqnA",
        "cuisine": "american",
        "name": "Beauty & Essex",
        "address": "146 Essex St",
        "latitude": 40.72037,
        "longitude": -73.98677,
        "review_count": 3504,
        "rating": 4.0,
        "zip_code": "10002"
    },
    {
        "id": "ugzHlkx2ILYzs72_8hxV8w",
        "cuisine": "american",
        "name": "Wheeler's Restaurant",
        "address": "1707 Sheepshead Bay Rd",
        "latitude": 40.5857567,
        "longitude": -73.95157,
        "review_count": 184,
        "rating": 4.0,
        "zip_code": "11235"
    },
    {
        "id": "Vx9jsY90nQ9PCKBa1aCt9w",
        "cuisine": "american",
        "name": "Tom's",
        "address": "782 Washington Ave",
        "latitude": 40.674491,
        "longitude": -73.963439,
        "review_count": 1312,
        "rating": 4.0,
        "zip_code": "11238"
    },
    {
        "id": "qYuWyqWH5zfKJfJ6obuh4g",
        "cuisine": "american",
        "name": "Eastfields Kitchen & Bar",
        "address": "1479 York Ave",
        "latitude": 40.7709264508638,
        "longitude": -73.950938590508,
        "review_count": 207,
        "rating": 4.0,
        "zip_code": "10075"
    },
    {
        "id": "EoAjAq8ha3mW25rMQTcNHw",
        "cuisine": "american",
        "name": "BLVD 93 NYC",
        "address": "61-18 93rd St",
        "latitude": 40.7326858,
        "longitude": -73.8664977,
        "review_count": 39,
        "rating": 5.0,
        "zip_code": "11374"
    },
    {
        "id": "DI0PHE6PVTpJF6dvG_d1Wg",
        "cuisine": "american",
        "name": "Red Hook Tavern",
        "address": "329 Van Brunt St",
        "latitude": 40.67788,
        "longitude": -74.01209,
        "review_count": 64,
        "rating": 4.0,
        "zip_code": "11231"
    },
    {
        "id": "moaPtBNbQ5VNu2Z0ilCVGQ",
        "cuisine": "american",
        "name": "Walter's",
        "address": "166 DeKalb Ave",
        "latitude": 40.6894111633301,
        "longitude": -73.973258972168,
        "review_count": 527,
        "rating": 4.0,
        "zip_code": "11217"
    },
    {
        "id": "RXX8EgFdSFl_uEyq7FhcNg",
        "cuisine": "american",
        "name": "Skytown",
        "address": "921 Broadway",
        "latitude": 40.6976048354338,
        "longitude": -73.9360729407192,
        "review_count": 263,
        "rating": 4.0,
        "zip_code": "11206"
    },
    {
        "id": "yihja79D40NH8J6acX1Xwg",
        "cuisine": "american",
        "name": "The Grey Dog",
        "address": "55 W 26th St",
        "latitude": 40.7447859220314,
        "longitude": -73.9909402789797,
        "review_count": 2,
        "rating": 5.0,
        "zip_code": "10010"
    },
    {
        "id": "LMyvruexOQzzHQrAgbdqiA",
        "cuisine": "american",
        "name": "Nowon",
        "address": "507 East 6th St",
        "latitude": 40.72532,
        "longitude": -73.98334,
        "review_count": 93,
        "rating": 4.5,
        "zip_code": "10009"
    },
    {
        "id": "4rWJGwb3rjDoZHA0AECa5A",
        "cuisine": "american",
        "name": "Melba's Restaurant",
        "address": "300 W 114th St",
        "latitude": 40.8031468838453,
        "longitude": -73.9565069228411,
        "review_count": 1132,
        "rating": 4.0,
        "zip_code": "10026"
    },
    {
        "id": "57joDNvKR4nd05PqNcgzKA",
        "cuisine": "american",
        "name": "Emoji Burger",
        "address": "80-07 37th Ave",
        "latitude": 40.7496944,
        "longitude": -73.8860056,
        "review_count": 215,
        "rating": 4.0,
        "zip_code": "11372"
    },
    {
        "id": "JI_teX5hC2rvHRbAo9JRTw",
        "cuisine": "american",
        "name": "Quality Eats",
        "address": "19 Greenwich Ave",
        "latitude": 40.7345,
        "longitude": -74.00004,
        "review_count": 431,
        "rating": 4.0,
        "zip_code": "10014"
    },
    {
        "id": "tOn-wEQ06ScrgeU5Ljw7Gw",
        "cuisine": "american",
        "name": "Alfie's",
        "address": "800 9th Ave",
        "latitude": 40.765437,
        "longitude": -73.987278,
        "review_count": 527,
        "rating": 4.0,
        "zip_code": "10019"
    },
    {
        "id": "jzQNE09rRKz8Ou-bEdEY1Q",
        "cuisine": "american",
        "name": "The Grey Dog - Nolita",
        "address": "244 Mulberry St",
        "latitude": 40.7229699,
        "longitude": -73.99576,
        "review_count": 595,
        "rating": 4.0,
        "zip_code": "10012"
    },
    {
        "id": "KlpSkLUIDvOlV0UlGpZA_g",
        "cuisine": "american",
        "name": "Cash Only BBQ",
        "address": "100 3rd Ave",
        "latitude": 40.732514,
        "longitude": -73.98818,
        "review_count": 1,
        "rating": 5.0,
        "zip_code": "10003"
    },
    {
        "id": "uuHujhrkVQdS8XVSGWW2mA",
        "cuisine": "american",
        "name": "Cebu Bar & Bistro",
        "address": "8801 3rd Ave",
        "latitude": 40.62186,
        "longitude": -74.031383,
        "review_count": 715,
        "rating": 4.0,
        "zip_code": "11209"
    },
    {
        "id": "ihplCj2HKWR7z-bBKf8Nzw",
        "cuisine": "american",
        "name": "POST",
        "address": "42 Ave B",
        "latitude": 40.72298,
        "longitude": -73.98302,
        "review_count": 267,
        "rating": 4.5,
        "zip_code": "10009"
    },
    {
        "id": "43_d9tQwmxJh4t6pBtCBag",
        "cuisine": "american",
        "name": "The Gold Room",
        "address": "429 Rogers Ave",
        "latitude": 40.66202,
        "longitude": -73.95353,
        "review_count": 63,
        "rating": 4.0,
        "zip_code": "11225"
    },
    {
        "id": "7Ui-wOox7975OuoQpLIUvg",
        "cuisine": "american",
        "name": "Viand Caf\u00e9",
        "address": "2130 Broadway",
        "latitude": 40.78066,
        "longitude": -73.98112,
        "review_count": 254,
        "rating": 3.5,
        "zip_code": "10023"
    },
    {
        "id": "YjD9sNbooHMHpvjDzc89rA",
        "cuisine": "american",
        "name": "Zona Sur Bar Bistro",
        "address": "4314 4th Ave",
        "latitude": 40.650275,
        "longitude": -74.009116,
        "review_count": 330,
        "rating": 4.0,
        "zip_code": "11232"
    },
    {
        "id": "1JShIY9vNv8fZ0VH9jR0tg",
        "cuisine": "american",
        "name": "Aqua Bar & Grill",
        "address": "2241 Washington Ave",
        "latitude": 40.8544390873351,
        "longitude": -73.8941606506705,
        "review_count": 4,
        "rating": 3.5,
        "zip_code": "10457"
    },
    {
        "id": "6hKJePanmG9AxK4dfwgyyg",
        "cuisine": "american",
        "name": "The Horny Ram",
        "address": "951 2nd Ave",
        "latitude": 40.75528,
        "longitude": -73.96857,
        "review_count": 487,
        "rating": 4.0,
        "zip_code": "10022"
    },
    {
        "id": "wwYJlPAg4_DV_DihANcuOw",
        "cuisine": "american",
        "name": "Estuary",
        "address": "159 Bridge Park Dr",
        "latitude": 40.6932355,
        "longitude": -74.0007940774,
        "review_count": 32,
        "rating": 4.0,
        "zip_code": "11201"
    },
    {
        "id": "MyQV4i518ZO4CLudtR8gLA",
        "cuisine": "american",
        "name": "The Bar Room",
        "address": "117 E 60th St",
        "latitude": 40.763409,
        "longitude": -73.968449,
        "review_count": 517,
        "rating": 4.0,
        "zip_code": "10022"
    },
    {
        "id": "NDIrifAl6K-RrnZ2D3ZGbw",
        "cuisine": "american",
        "name": "Emily",
        "address": "919 Fulton St",
        "latitude": 40.68351,
        "longitude": -73.96643,
        "review_count": 793,
        "rating": 4.0,
        "zip_code": "11238"
    },
    {
        "id": "QNJ5u8kklZbg1viEvUawmw",
        "cuisine": "american",
        "name": "Vibe",
        "address": "92 Route 23 North",
        "latitude": 40.988882,
        "longitude": -74.324061,
        "review_count": 5,
        "rating": 5.0,
        "zip_code": "07457"
    },
    {
        "id": "MfbVI5reXLIIs8Cc2HwgQw",
        "cuisine": "american",
        "name": "Breakroom",
        "address": "83 Baxter St",
        "latitude": 40.7166907225542,
        "longitude": -73.9999440120647,
        "review_count": 1602,
        "rating": 4.5,
        "zip_code": "10013"
    },
    {
        "id": "Me4TxTbPPQZQopW1wOGx5g",
        "cuisine": "american",
        "name": "Jack's Wife Freda",
        "address": "224 Lafayette St",
        "latitude": 40.72213,
        "longitude": -73.99756,
        "review_count": 1913,
        "rating": 4.0,
        "zip_code": "10012"
    },
    {
        "id": "r-izNItUH4ugnFodUOZX2A",
        "cuisine": "american",
        "name": "International Wings Factory",
        "address": "1762 1st Ave",
        "latitude": 40.7801834538692,
        "longitude": -73.9467542692273,
        "review_count": 449,
        "rating": 4.5,
        "zip_code": "10128"
    },
    {
        "id": "sbbrNeGvSAUdrhcIm2MTsg",
        "cuisine": "american",
        "name": "191 Knickerbocker",
        "address": "191 Knickerbocker Ave",
        "latitude": 40.70392,
        "longitude": -73.92683,
        "review_count": 148,
        "rating": 5.0,
        "zip_code": "11237"
    },
    {
        "id": "8F81LrdFm6P5kkFpsw0n0w",
        "cuisine": "american",
        "name": "Sweet Chick",
        "address": "178 Ludlow St",
        "latitude": 40.7217399,
        "longitude": -73.98739,
        "review_count": 1653,
        "rating": 4.0,
        "zip_code": "10002"
    },
    {
        "id": "oW25x1w-Zv6CmprrT_R4Hw",
        "cuisine": "american",
        "name": "Craft Culture",
        "address": "59-04 Myrtle Ave",
        "latitude": 40.7004551589489,
        "longitude": -73.8999652862549,
        "review_count": 45,
        "rating": 5.0,
        "zip_code": "11385"
    },
    {
        "id": "fmrtc7AsD7GS3BAfJ8QQHQ",
        "cuisine": "american",
        "name": "Gentleman Farmer | Fort Greene",
        "address": "378 Myrtle Ave",
        "latitude": 40.69307,
        "longitude": -73.9711,
        "review_count": 166,
        "rating": 4.5,
        "zip_code": "11205"
    },
    {
        "id": "XAeGAF5MGr7P6A13SnXbjQ",
        "cuisine": "american",
        "name": "Merchants River House",
        "address": "375 S End Ave",
        "latitude": 40.7112882252543,
        "longitude": -74.0176175854584,
        "review_count": 482,
        "rating": 4.0,
        "zip_code": "10280"
    },
    {
        "id": "nm5rcWNmfevNXLNQAITi5w",
        "cuisine": "american",
        "name": "Clinton Hall",
        "address": "90 Washington St",
        "latitude": 40.70803,
        "longitude": -74.014869,
        "review_count": 660,
        "rating": 3.5,
        "zip_code": "10006"
    },
    {
        "id": "zRXMvxUX_rOliKZPpkWi_g",
        "cuisine": "american",
        "name": "Valerie",
        "address": "45 W 45th St between 5th & 6th Ave",
        "latitude": 40.756354,
        "longitude": -73.981129,
        "review_count": 249,
        "rating": 4.0,
        "zip_code": "10036"
    },
    {
        "id": "m86CNmYThtzzWB3nPnrhbg",
        "cuisine": "american",
        "name": "Emily - West Village",
        "address": "35 Downing St",
        "latitude": 40.729330068469,
        "longitude": -74.0038400073579,
        "review_count": 666,
        "rating": 4.0,
        "zip_code": "10014"
    },
    {
        "id": "ywAq9nvr9jX1S7-_HjA5ng",
        "cuisine": "american",
        "name": "Ferris",
        "address": "44 W 29th St",
        "latitude": 40.74631,
        "longitude": -73.98948,
        "review_count": 176,
        "rating": 4.0,
        "zip_code": "10001"
    },
    {
        "id": "fanlKZzN-fI9LywqQD6EHg",
        "cuisine": "american",
        "name": "Broadstone Bar & Kitchen",
        "address": "88 Broad St",
        "latitude": 40.70411,
        "longitude": -74.01186,
        "review_count": 259,
        "rating": 4.0,
        "zip_code": "10004"
    },
    {
        "id": "veku2cg2qaV-7MxwhOMBmg",
        "cuisine": "american",
        "name": "Judge Roy Bean Public House",
        "address": "38 W 56th St",
        "latitude": 40.7629158108786,
        "longitude": -73.9761248066812,
        "review_count": 749,
        "rating": 4.5,
        "zip_code": "10019"
    },
    {
        "id": "wouDDTacUIBaRp8YGCFTsA",
        "cuisine": "american",
        "name": "Colonie",
        "address": "127 Atlantic Ave",
        "latitude": 40.6909,
        "longitude": -73.9958,
        "review_count": 578,
        "rating": 4.0,
        "zip_code": "11201"
    },
    {
        "id": "yWX87K0CSNvhuvVarYE-7A",
        "cuisine": "american",
        "name": "Foodstruck",
        "address": "3106 35th St",
        "latitude": 40.7626301,
        "longitude": -73.9206288,
        "review_count": 21,
        "rating": 5.0,
        "zip_code": "11106"
    },
    {
        "id": "ktvhcL-VzaZRxkqm3rAXEA",
        "cuisine": "american",
        "name": "Brooklyn Label",
        "address": "180 Franklin St",
        "latitude": 40.73149,
        "longitude": -73.95771,
        "review_count": 82,
        "rating": 3.5,
        "zip_code": "11222"
    },
    {
        "id": "e_2o3neKJ5vwDXKd70XLBg",
        "cuisine": "american",
        "name": "Uncle Peter's",
        "address": "83-15 Northern Blvd",
        "latitude": 40.75598,
        "longitude": -73.88382,
        "review_count": 220,
        "rating": 4.0,
        "zip_code": "11372"
    },
    {
        "id": "45hQHMdFxw0mh7ZTU--cDQ",
        "cuisine": "american",
        "name": "The Grange Bar and Eatery",
        "address": "1635 Amsterdam Ave",
        "latitude": 40.8225233274899,
        "longitude": -73.949358447155,
        "review_count": 834,
        "rating": 4.0,
        "zip_code": "10031"
    },
    {
        "id": "dkAj-3gmkvdA4XkJmw6hCw",
        "cuisine": "american",
        "name": "Juanchi's Burger",
        "address": "225 S 1st St",
        "latitude": 40.713003,
        "longitude": -73.958863,
        "review_count": 451,
        "rating": 4.5,
        "zip_code": "11211"
    },
    {
        "id": "dMhRafXdr765DHe0k-QfaQ",
        "cuisine": "american",
        "name": "ABC Kitchen",
        "address": "38 E 19th St",
        "latitude": 40.738058,
        "longitude": -73.989289,
        "review_count": 2971,
        "rating": 4.0,
        "zip_code": "10003"
    },
    {
        "id": "Gc7OVEIs4HodL4hw9U3C3w",
        "cuisine": "american",
        "name": "Copinette",
        "address": "891 1st Ave",
        "latitude": 40.75407,
        "longitude": -73.96623,
        "review_count": 117,
        "rating": 4.0,
        "zip_code": "10022"
    },
    {
        "id": "lXGCo-K7eftxRT_6E59-Iw",
        "cuisine": "american",
        "name": "Union Square Cafe",
        "address": "101 E 19th St",
        "latitude": 40.737772,
        "longitude": -73.987876,
        "review_count": 1218,
        "rating": 4.0,
        "zip_code": "10003"
    },
    {
        "id": "n4m37Dm2Y5MUPF_dFGG_ww",
        "cuisine": "american",
        "name": "Fort Washington Public House",
        "address": "3938 Broadway",
        "latitude": 40.8390591026124,
        "longitude": -73.9410637691617,
        "review_count": 65,
        "rating": 4.5,
        "zip_code": "10032"
    },
    {
        "id": "92m23CB9r9XrPFK7_7-SmQ",
        "cuisine": "american",
        "name": "Flip'n Toss",
        "address": "82 Christopher St",
        "latitude": 40.73341,
        "longitude": -74.00364,
        "review_count": 183,
        "rating": 4.0,
        "zip_code": "10014"
    },
    {
        "id": "uBxSYU7JMsqI_9iMP0kl2Q",
        "cuisine": "american",
        "name": "The Common",
        "address": "9406 3rd Ave",
        "latitude": 40.61782,
        "longitude": -74.03353,
        "review_count": 137,
        "rating": 4.5,
        "zip_code": "11209"
    },
    {
        "id": "iZeAlmKKvxnPu5oUKN-B3Q",
        "cuisine": "american",
        "name": "Sweet Chick",
        "address": "341 Flatbush Ave",
        "latitude": 40.67763,
        "longitude": -73.97255,
        "review_count": 652,
        "rating": 4.0,
        "zip_code": "11217"
    },
    {
        "id": "kH5RMIaFmd-bekCIhOcqDw",
        "cuisine": "american",
        "name": "Landmark Tavern",
        "address": "626 11th Ave",
        "latitude": 40.763156,
        "longitude": -73.996253,
        "review_count": 291,
        "rating": 4.0,
        "zip_code": "10036"
    },
    {
        "id": "W0k5HHTa7IJsR51Nf7fOmA",
        "cuisine": "american",
        "name": "Times Square Diner",
        "address": "807 8th Ave",
        "latitude": 40.7614036889404,
        "longitude": -73.9869685269328,
        "review_count": 939,
        "rating": 4.0,
        "zip_code": "10019"
    },
    {
        "id": "ZOa13veZkzGjA-x3kMfOmA",
        "cuisine": "american",
        "name": "4 Charles Prime Rib",
        "address": "4 Charles St",
        "latitude": 40.73513,
        "longitude": -74.00065,
        "review_count": 264,
        "rating": 5.0,
        "zip_code": "10014"
    },
    {
        "id": "bpjDo7svAFD10eszaOPQHw",
        "cuisine": "american",
        "name": "Clinton Hall",
        "address": "16 W 36th St",
        "latitude": 40.75009,
        "longitude": -73.98471,
        "review_count": 192,
        "rating": 4.0,
        "zip_code": "10018"
    },
    {
        "id": "r0WVjTo5F0wOSkITeAId5w",
        "cuisine": "american",
        "name": "Uncle Rushford",
        "address": "104 W 14th St",
        "latitude": 40.737343,
        "longitude": -73.997496,
        "review_count": 3,
        "rating": 4.5,
        "zip_code": "10011"
    },
    {
        "id": "3gqKLANaXNsHZnPDjKrcTg",
        "cuisine": "american",
        "name": "Win Son",
        "address": "159 Graham Ave",
        "latitude": 40.70747,
        "longitude": -73.94339,
        "review_count": 493,
        "rating": 4.0,
        "zip_code": "11206"
    },
    {
        "id": "1iy3W3yX6BGYF2387OPXQg",
        "cuisine": "american",
        "name": "Ivy Lane",
        "address": "116 E 60th St",
        "latitude": 40.763027,
        "longitude": -73.968715,
        "review_count": 58,
        "rating": 4.5,
        "zip_code": "10022"
    },
    {
        "id": "qMHzIYzoHYe55I7L65iEQw",
        "cuisine": "american",
        "name": "Foragers Table",
        "address": "233 8th Ave",
        "latitude": 40.744541,
        "longitude": -73.9990926,
        "review_count": 550,
        "rating": 4.0,
        "zip_code": "10011"
    },
    {
        "id": "RrPIJvmje1qb9iaYd6jH0g",
        "cuisine": "american",
        "name": "Pinto Restaurant",
        "address": "128 Montague St",
        "latitude": 40.6947735368336,
        "longitude": -73.9943484261754,
        "review_count": 216,
        "rating": 4.0,
        "zip_code": "11201"
    },
    {
        "id": "YkJkMOSXDprv6gsQ5Grc6A",
        "cuisine": "american",
        "name": "Diller",
        "address": "357 Grand St",
        "latitude": 40.716465,
        "longitude": -73.989078,
        "review_count": 63,
        "rating": 5.0,
        "zip_code": "10002"
    },
    {
        "id": "7woP6qG-FfYS_fxSoGt8dA",
        "cuisine": "american",
        "name": "Chillin' Bar and Grill",
        "address": "1263 St Nicholas Ave",
        "latitude": 40.8443381715375,
        "longitude": -73.9375953376293,
        "review_count": 2,
        "rating": 4.5,
        "zip_code": "10033"
    },
    {
        "id": "yDKChr-KX1Q1TbxUjaQJ_g",
        "cuisine": "american",
        "name": "The Spotted Dog",
        "address": "1154 1st Ave",
        "latitude": 40.7623521711694,
        "longitude": -73.9597779041227,
        "review_count": 126,
        "rating": 4.0,
        "zip_code": "10065"
    },
    {
        "id": "Jt1rwPZPKGdN9BcHCjPgWQ",
        "cuisine": "american",
        "name": "EJ's Luncheonette",
        "address": "1271 3rd Ave",
        "latitude": 40.7705399,
        "longitude": -73.95981,
        "review_count": 427,
        "rating": 3.0,
        "zip_code": "10021"
    },
    {
        "id": "VnnuUGARPaTevTIIApWWVw",
        "cuisine": "american",
        "name": "The Sweet Sap",
        "address": "189-11 Northern Blvd",
        "latitude": 40.7578205497777,
        "longitude": -73.7917962842939,
        "review_count": 312,
        "rating": 4.5,
        "zip_code": "11358"
    },
    {
        "id": "UXVDyIzmO5kmJnlv-HDXLg",
        "cuisine": "american",
        "name": "Cafeteria",
        "address": "119 7th Ave",
        "latitude": 40.740567590122,
        "longitude": -73.9980747946,
        "review_count": 3334,
        "rating": 3.5,
        "zip_code": "10011"
    },
    {
        "id": "aAqdmE9QFLLQsYDMibtbJA",
        "cuisine": "american",
        "name": "Mama Eatery",
        "address": "46 Mulberry St",
        "latitude": 40.71503,
        "longitude": -73.99956,
        "review_count": 126,
        "rating": 4.0,
        "zip_code": "10013"
    },
    {
        "id": "R7EGjHWw0tNheY6-ahH8fQ",
        "cuisine": "american",
        "name": "Tuome",
        "address": "536 E 5th St",
        "latitude": 40.72412482724,
        "longitude": -73.9828906263924,
        "review_count": 503,
        "rating": 4.5,
        "zip_code": "10009"
    },
    {
        "id": "zZpuUqF0iENnyYd2UYIX6w",
        "cuisine": "american",
        "name": "Locksmith Bar",
        "address": "4463 Broadway",
        "latitude": 40.8573807,
        "longitude": -73.9325659,
        "review_count": 377,
        "rating": 4.0,
        "zip_code": "10040"
    },
    {
        "id": "77EedCTJY1biWIYSzAulCQ",
        "cuisine": "american",
        "name": "J.G. Melon",
        "address": "1291 3rd Ave",
        "latitude": 40.77105,
        "longitude": -73.95931,
        "review_count": 1299,
        "rating": 3.5,
        "zip_code": "10021"
    },
    {
        "id": "YSflX6shqcP3zYno0Zz75Q",
        "cuisine": "american",
        "name": "While We Were Young",
        "address": "183 W 10th St",
        "latitude": 40.73437,
        "longitude": -74.00272,
        "review_count": 355,
        "rating": 4.0,
        "zip_code": "10014"
    },
    {
        "id": "Orbsfc3nI21mQ8cwSPahhg",
        "cuisine": "american",
        "name": "The Four Horsemen",
        "address": "295 Grand St",
        "latitude": 40.71305,
        "longitude": -73.95732,
        "review_count": 186,
        "rating": 4.5,
        "zip_code": "11211"
    },
    {
        "id": "iigqtLntqUS18cXmEXofIQ",
        "cuisine": "american",
        "name": "The Lowery Bar & Kitchen",
        "address": "43-02 43rd Ave",
        "latitude": 40.7451454550028,
        "longitude": -73.9208489656448,
        "review_count": 257,
        "rating": 4.5,
        "zip_code": "11104"
    },
    {
        "id": "scjoZtbTQHi35xhAlUm2iQ",
        "cuisine": "american",
        "name": "L'ADRESSE",
        "address": "1065 Ave Of The Americas",
        "latitude": 40.75403,
        "longitude": -73.98539,
        "review_count": 632,
        "rating": 4.0,
        "zip_code": "10018"
    },
    {
        "id": "hmdm-dO72hLsMQwQRcGEUQ",
        "cuisine": "american",
        "name": "Atrium Dumbo",
        "address": "15 Main St",
        "latitude": 40.7033899,
        "longitude": -73.9904923,
        "review_count": 665,
        "rating": 3.5,
        "zip_code": "11201"
    },
    {
        "id": "cCesIqo-LQt0cRlZAnrAZQ",
        "cuisine": "american",
        "name": "Friedman's",
        "address": "132 W 31st St",
        "latitude": 40.748297,
        "longitude": -73.990649,
        "review_count": 2471,
        "rating": 4.0,
        "zip_code": "10001"
    },
    {
        "id": "yOPbrFZ2ZUsyQWsedP6gUg",
        "cuisine": "american",
        "name": "Amity Hall Uptown",
        "address": "982 Amsterdam Ave",
        "latitude": 40.80231,
        "longitude": -73.96475,
        "review_count": 194,
        "rating": 4.0,
        "zip_code": "10025"
    },
    {
        "id": "d9McxjP7tG3IS6fKseMWWA",
        "cuisine": "american",
        "name": "Friendz Restaurant",
        "address": "2021 Flatbush Ave",
        "latitude": 40.62044,
        "longitude": -73.93426,
        "review_count": 3,
        "rating": 3.5,
        "zip_code": "11234"
    },
    {
        "id": "xlr1KcIeILEZXSRy3OycDw",
        "cuisine": "american",
        "name": "Clubhouse",
        "address": "235 W 57th St",
        "latitude": 40.7667047232494,
        "longitude": -73.9820542931557,
        "review_count": 7,
        "rating": 5.0,
        "zip_code": "10019"
    },
    {
        "id": "wTQYOTh9_JPI2I8s6Xc-Cw",
        "cuisine": "american",
        "name": "Pineapple Club",
        "address": "509 E 6th St",
        "latitude": 40.725316,
        "longitude": -73.983293,
        "review_count": 25,
        "rating": 4.5,
        "zip_code": "10009"
    },
    {
        "id": "xTWpl9DgIkkr5B8h8_xUpA",
        "cuisine": "american",
        "name": "Lokal 83 Mediterranean Kitchen",
        "address": "473 Columbus Ave",
        "latitude": 40.7842696,
        "longitude": -73.9734941,
        "review_count": 327,
        "rating": 4.5,
        "zip_code": "10024"
    },
    {
        "id": "ybAfKElsgVcm60sS-39zyA",
        "cuisine": "american",
        "name": "Clark's Restaurant",
        "address": "80 Clark St",
        "latitude": 40.69740294105,
        "longitude": -73.993250079407,
        "review_count": 412,
        "rating": 3.5,
        "zip_code": "11201"
    },
    {
        "id": "XO3yD87rTPz9o6Dy9qRaJg",
        "cuisine": "american",
        "name": "The Spaniard",
        "address": "190 W 4th St",
        "latitude": 40.7327497,
        "longitude": -74.0021829,
        "review_count": 252,
        "rating": 4.0,
        "zip_code": "10014"
    },
    {
        "id": "0bCzAx6i4GJsVVfRRNm0Ng",
        "cuisine": "american",
        "name": "Hilltop Park Alehouse",
        "address": "3821 Broadway",
        "latitude": 40.8355357692981,
        "longitude": -73.9441479742527,
        "review_count": 80,
        "rating": 4.0,
        "zip_code": "10032"
    },
    {
        "id": "8IRT0TGqsc9Ng27f_TFhnQ",
        "cuisine": "american",
        "name": "Spiegel",
        "address": "26 1st Ave",
        "latitude": 40.723690032959,
        "longitude": -73.98783,
        "review_count": 343,
        "rating": 4.0,
        "zip_code": "10009"
    },
    {
        "id": "MQhv4KA4tk6PYAfkMt07Jw",
        "cuisine": "american",
        "name": "Brooklyn's Best Eats",
        "address": "23 Hillel Pl",
        "latitude": 40.63245767,
        "longitude": -73.94840333,
        "review_count": 2,
        "rating": 5.0,
        "zip_code": "11210"
    },
    {
        "id": "9AXTJkwXdWaJaQkCjpj6mA",
        "cuisine": "american",
        "name": "Sunday in Brooklyn",
        "address": "348 Wythe Ave",
        "latitude": 40.714145,
        "longitude": -73.965322,
        "review_count": 798,
        "rating": 4.0,
        "zip_code": "11249"
    },
    {
        "id": "s41IdamLoN-q6SBVcj7jtg",
        "cuisine": "american",
        "name": "Cobble & Co.",
        "address": "19 Fulton St",
        "latitude": 40.70701,
        "longitude": -74.00356,
        "review_count": 166,
        "rating": 3.5,
        "zip_code": "10038"
    },
    {
        "id": "63nYipWuA42RZmESBMUNkQ",
        "cuisine": "american",
        "name": "The Bluebell Cafe",
        "address": "293 3rd Ave",
        "latitude": 40.73845,
        "longitude": -73.98321,
        "review_count": 620,
        "rating": 4.0,
        "zip_code": "10010"
    },
    {
        "id": "DOdamkEm9JWR9s6VH_NuOQ",
        "cuisine": "american",
        "name": "Mayfield",
        "address": "688 Franklin Ave",
        "latitude": 40.6748580932617,
        "longitude": -73.9565734863281,
        "review_count": 526,
        "rating": 4.0,
        "zip_code": "11238"
    },
    {
        "id": "f4QBa0khsF9Ut99Tc9IMIA",
        "cuisine": "american",
        "name": "Haswell Green's",
        "address": "240 W 52nd St",
        "latitude": 40.76301,
        "longitude": -73.98416,
        "review_count": 314,
        "rating": 4.5,
        "zip_code": "10019"
    },
    {
        "id": "7szsAtxOkGJ2ady3Qx7v4w",
        "cuisine": "american",
        "name": "The Hideaway Seaport",
        "address": "22 Peck Slip",
        "latitude": 40.7080634,
        "longitude": -74.002083,
        "review_count": 93,
        "rating": 4.0,
        "zip_code": "10038"
    },
    {
        "id": "oXnJEg_AScyrR1lO4dnAfw",
        "cuisine": "american",
        "name": "The Wheelhouse",
        "address": "165 Wilson Ave",
        "latitude": 40.700122,
        "longitude": -73.924188,
        "review_count": 279,
        "rating": 4.0,
        "zip_code": "11237"
    },
    {
        "id": "ygl43IfAeM8X4XYlSTr90w",
        "cuisine": "american",
        "name": "Clyde Fraziers Wine and Dine",
        "address": "485 10th Ave",
        "latitude": 40.756784795428,
        "longitude": -73.9979356060821,
        "review_count": 564,
        "rating": 3.5,
        "zip_code": "10018"
    },
    {
        "id": "OrDUF3q9WNttIslLXKx0Aw",
        "cuisine": "american",
        "name": "Concrete",
        "address": "906 Broadway",
        "latitude": 40.6977,
        "longitude": -73.9368,
        "review_count": 96,
        "rating": 4.5,
        "zip_code": "11206"
    },
    {
        "id": "P0OilvtjGnUQgf7hFzEgcg",
        "cuisine": "american",
        "name": "Mad For Chicken Williamsburg",
        "address": "617 Grand St",
        "latitude": 40.71142,
        "longitude": -73.94751,
        "review_count": 119,
        "rating": 4.5,
        "zip_code": "11211"
    },
    {
        "id": "K_0tNvQd7gyabfJrodf-tw",
        "cuisine": "american",
        "name": "Archer & Goat",
        "address": "187 Lenox Ave",
        "latitude": 40.80432,
        "longitude": -73.94835,
        "review_count": 96,
        "rating": 4.5,
        "zip_code": "10026"
    },
    {
        "id": "n-JSnKZcF1Bs-RPcIlb0qw",
        "cuisine": "american",
        "name": "Elephant & Castle",
        "address": "68 Greenwich Ave",
        "latitude": 40.736214,
        "longitude": -74.000729,
        "review_count": 534,
        "rating": 4.0,
        "zip_code": "10011"
    },
    {
        "id": "iOS22KS2tvwTlzDJD1Jz0A",
        "cuisine": "american",
        "name": "Global Burgers",
        "address": "98 Halsey St",
        "latitude": 40.73890333,
        "longitude": -74.17195,
        "review_count": 2,
        "rating": 4.5,
        "zip_code": "07102"
    },
    {
        "id": "eSyYRxNDQoOundKSUqRosw",
        "cuisine": "american",
        "name": "The Daisy",
        "address": "1641 Second Ave",
        "latitude": 40.77741,
        "longitude": -73.952434,
        "review_count": 249,
        "rating": 3.5,
        "zip_code": "10028"
    },
    {
        "id": "Z-hDHjP4Eza6BA4G97tzVA",
        "cuisine": "american",
        "name": "BLVD Bistro",
        "address": "2149 Frederick Douglass Blvd",
        "latitude": 40.80438,
        "longitude": -73.9558,
        "review_count": 904,
        "rating": 4.0,
        "zip_code": "10026"
    },
    {
        "id": "xefmiLAsKURFc6FDGSRgfQ",
        "cuisine": "american",
        "name": "Westville - Wall St",
        "address": "110 Wall St",
        "latitude": 40.70478,
        "longitude": -74.00652,
        "review_count": 193,
        "rating": 4.0,
        "zip_code": "10005"
    },
    {
        "id": "fgtw4swOHXEFwZpBCG05rQ",
        "cuisine": "american",
        "name": "Black Iron Burger",
        "address": "245 W 38th St",
        "latitude": 40.75427,
        "longitude": -73.99031,
        "review_count": 956,
        "rating": 4.0,
        "zip_code": "10018"
    },
    {
        "id": "Rc1lxc5lSKJYd162JHNMfQ",
        "cuisine": "american",
        "name": "Bea",
        "address": "403 W 43rd St",
        "latitude": 40.7591968,
        "longitude": -73.9923361,
        "review_count": 2497,
        "rating": 4.0,
        "zip_code": "10036"
    },
    {
        "id": "LfT7DQvlY5ugSkBkrO8_mA",
        "cuisine": "american",
        "name": "Wonderville",
        "address": "1186 Broadway",
        "latitude": 40.69245,
        "longitude": -73.92751,
        "review_count": 10,
        "rating": 5.0,
        "zip_code": "11221"
    },
    {
        "id": "AKHA6ZU8uM3vmLwH2hqH_A",
        "cuisine": "american",
        "name": "Loring Place",
        "address": "21 W 8th St",
        "latitude": 40.7329940795898,
        "longitude": -73.9975357055664,
        "review_count": 418,
        "rating": 4.5,
        "zip_code": "10011"
    },
    {
        "id": "y6XohzcYjUAQOD8U3NT_yw",
        "cuisine": "american",
        "name": "The Stag's Head",
        "address": "252 E 51st St",
        "latitude": 40.755592,
        "longitude": -73.968588,
        "review_count": 429,
        "rating": 4.0,
        "zip_code": "10022"
    },
    {
        "id": "hPcNSnzW_oJMAoa7fIWKQw",
        "cuisine": "american",
        "name": "Jackson Hole Burgers",
        "address": "232 E 64th St",
        "latitude": 40.763807,
        "longitude": -73.962919,
        "review_count": 374,
        "rating": 3.5,
        "zip_code": "10065"
    },
    {
        "id": "TaAICUBApAfQG0ATDyspJQ",
        "cuisine": "american",
        "name": "9ten Restaurant",
        "address": "910 7th Ave",
        "latitude": 40.7661399841309,
        "longitude": -73.97998046875,
        "review_count": 203,
        "rating": 4.0,
        "zip_code": "10019"
    },
    {
        "id": "nmXFkU3kMuFjbG5OaGnWcg",
        "cuisine": "american",
        "name": "Dig",
        "address": "166 N 4th St",
        "latitude": 40.7157642311704,
        "longitude": -73.9589764793835,
        "review_count": 58,
        "rating": 4.5,
        "zip_code": "11211"
    },
    {
        "id": "cRsIsiuoV11zX8oLY8brhQ",
        "cuisine": "american",
        "name": "DumboLuv",
        "address": "54 Jay St",
        "latitude": 40.7032593,
        "longitude": -73.9866501,
        "review_count": 8,
        "rating": 4.5,
        "zip_code": "11201"
    },
    {
        "id": "ryvBsB9FrBBZDak87iGS1w",
        "cuisine": "american",
        "name": "The Sea Fire Grill",
        "address": "158 E 48th St",
        "latitude": 40.7547012104496,
        "longitude": -73.972255513072,
        "review_count": 1278,
        "rating": 4.5,
        "zip_code": "10017"
    },
    {
        "id": "jjLcqGI11ThxAhcftEh1Aw",
        "cuisine": "american",
        "name": "Fraunces Tavern",
        "address": "54 Pearl St",
        "latitude": 40.70344,
        "longitude": -74.01135,
        "review_count": 881,
        "rating": 3.5,
        "zip_code": "10004"
    },
    {
        "id": "UveVdthLfWt_RFXMf1Wwzw",
        "cuisine": "american",
        "name": "Harlem Ale House",
        "address": "101 W 127th St",
        "latitude": 40.8093748,
        "longitude": -73.9449142,
        "review_count": 70,
        "rating": 4.5,
        "zip_code": "10027"
    },
    {
        "id": "KF4dTBX9ITMTSjwEXxXZ6g",
        "cuisine": "american",
        "name": "Friedman's",
        "address": "130 W 72nd St",
        "latitude": 40.77775,
        "longitude": -73.98003,
        "review_count": 141,
        "rating": 4.0,
        "zip_code": "10023"
    },
    {
        "id": "ETgJqJHV7BW6pIr9Ox74sA",
        "cuisine": "american",
        "name": "Am\u00e9lie",
        "address": "22 W 8th St",
        "latitude": 40.7327,
        "longitude": -73.99766,
        "review_count": 2688,
        "rating": 4.5,
        "zip_code": "10011"
    },
    {
        "id": "nsnPyoDYc_fYCxZfgKdzmw",
        "cuisine": "american",
        "name": "82 Stanton",
        "address": "82 Stanton St",
        "latitude": 40.721701,
        "longitude": -73.988817,
        "review_count": 16,
        "rating": 4.5,
        "zip_code": "10002"
    },
    {
        "id": "WJS06XxRdc6DD1s4LWE9HA",
        "cuisine": "american",
        "name": "Fish Cheeks",
        "address": "55 Bond St",
        "latitude": 40.7258,
        "longitude": -73.9927,
        "review_count": 679,
        "rating": 4.5,
        "zip_code": "10012"
    },
    {
        "id": "C2o3Iw-DXjoUJFgQIbiqkQ",
        "cuisine": "american",
        "name": "BoCaphe",
        "address": "222 Lafayette St",
        "latitude": 40.722062,
        "longitude": -73.997587,
        "review_count": 1529,
        "rating": 4.0,
        "zip_code": "10012"
    },
    {
        "id": "zXCGF0XtqjOv1s4DUHOtqg",
        "cuisine": "american",
        "name": "Hart's Restaurant",
        "address": "506 Franklin Ave",
        "latitude": 40.681458,
        "longitude": -73.955893,
        "review_count": 93,
        "rating": 4.0,
        "zip_code": "11238"
    },
    {
        "id": "4zBGXDXg9DzK0IROwCUeFg",
        "cuisine": "american",
        "name": "Cowgirl Seahorse",
        "address": "259 Front St",
        "latitude": 40.7081358,
        "longitude": -74.0004532,
        "review_count": 588,
        "rating": 4.0,
        "zip_code": "10038"
    },
    {
        "id": "EaAAP-gDALDL7GxcseMjBQ",
        "cuisine": "american",
        "name": "The Polo Bar",
        "address": "1 E 55th St",
        "latitude": 40.761559099,
        "longitude": -73.9743427135,
        "review_count": 423,
        "rating": 4.0,
        "zip_code": "10022"
    },
    {
        "id": "CFR-HzVHKWRMpMAR3LAhzg",
        "cuisine": "american",
        "name": "Montesacro Pinseria Brooklyn",
        "address": "432 Union Ave",
        "latitude": 40.71338,
        "longitude": -73.95136,
        "review_count": 81,
        "rating": 4.5,
        "zip_code": "11211"
    },
    {
        "id": "hmG5OnHEe2vQRrQxez0U9w",
        "cuisine": "american",
        "name": "Worthwild",
        "address": "156 9th Ave",
        "latitude": 40.74428,
        "longitude": -74.00272,
        "review_count": 62,
        "rating": 4.5,
        "zip_code": "10011"
    },
    {
        "id": "_pXppRVEAW6zi8uRjx1ULg",
        "cuisine": "american",
        "name": "Hudson Yards Tavern",
        "address": "360 9th Ave",
        "latitude": 40.751018,
        "longitude": -73.997622,
        "review_count": 9,
        "rating": 4.5,
        "zip_code": "10001"
    },
    {
        "id": "DZaN3bNWfwcm__sNw5bvDg",
        "cuisine": "american",
        "name": "Daniel",
        "address": "60 E 65th St",
        "latitude": 40.7667736797858,
        "longitude": -73.967607,
        "review_count": 1605,
        "rating": 4.5,
        "zip_code": "10065"
    },
    {
        "id": "38YuedP0ItlKbC-ncJ1XCQ",
        "cuisine": "american",
        "name": "Tavern on Jane",
        "address": "31 8th Ave",
        "latitude": 40.73822,
        "longitude": -74.00426,
        "review_count": 407,
        "rating": 4.0,
        "zip_code": "10014"
    },
    {
        "id": "SaYTVG7wHCMDBofHCgXPaA",
        "cuisine": "american",
        "name": "Dutch Freds",
        "address": "307 W 47th St",
        "latitude": 40.760835,
        "longitude": -73.987823,
        "review_count": 1571,
        "rating": 4.5,
        "zip_code": "10036"
    },
    {
        "id": "xhuDOqY9G5mPuSqBnMCaYw",
        "cuisine": "american",
        "name": "Henry's End",
        "address": "72 Henry St",
        "latitude": 40.69869,
        "longitude": -73.99257,
        "review_count": 355,
        "rating": 4.0,
        "zip_code": "11201"
    },
    {
        "id": "Xk3BVvlX-KXh6kJhbClMKw",
        "cuisine": "american",
        "name": "Fine & Rare",
        "address": "9 E 37th St",
        "latitude": 40.7501754760742,
        "longitude": -73.9821929931641,
        "review_count": 320,
        "rating": 4.5,
        "zip_code": "10016"
    },
    {
        "id": "pNYcGGAj4AYaExlmrEmfUw",
        "cuisine": "american",
        "name": "Harry's",
        "address": "1 Hanover Sq",
        "latitude": 40.70451,
        "longitude": -74.0098299,
        "review_count": 691,
        "rating": 4.0,
        "zip_code": "10004"
    },
    {
        "id": "kmcgUxWhwlbmC-FAMTEF2g",
        "cuisine": "american",
        "name": "Caf\u00e9 D'Alsace",
        "address": "1695 2nd Ave",
        "latitude": 40.77916,
        "longitude": -73.95104,
        "review_count": 1211,
        "rating": 4.0,
        "zip_code": "10128"
    },
    {
        "id": "3iLPrhNb02n81GdxP_jqgQ",
        "cuisine": "american",
        "name": "North Square",
        "address": "103 Waverly Pl",
        "latitude": 40.73251,
        "longitude": -73.99866,
        "review_count": 295,
        "rating": 4.0,
        "zip_code": "10011"
    },
    {
        "id": "3BbKR2GURXEXihFrDYqQkg",
        "cuisine": "american",
        "name": "Elder Greene",
        "address": "160 Franklin St",
        "latitude": 40.730721,
        "longitude": -73.957521,
        "review_count": 47,
        "rating": 4.0,
        "zip_code": "11222"
    },
    {
        "id": "0BzxIsoRuFvxbMPl-iH70A",
        "cuisine": "american",
        "name": "Market Table",
        "address": "54 Carmine St",
        "latitude": 40.7297659255873,
        "longitude": -74.0037665277862,
        "review_count": 789,
        "rating": 4.0,
        "zip_code": "10014"
    },
    {
        "id": "uq5rHbGtBFwCwPkokIkKvQ",
        "cuisine": "american",
        "name": "JoJo",
        "address": "160 E 64th St",
        "latitude": 40.76506,
        "longitude": -73.96571,
        "review_count": 157,
        "rating": 4.0,
        "zip_code": "10065"
    },
    {
        "id": "56nGFQ5PVuGErwcAR34QAw",
        "cuisine": "american",
        "name": "Meadowsweet",
        "address": "149 Broadway",
        "latitude": 40.7103995,
        "longitude": -73.9632384,
        "review_count": 392,
        "rating": 4.0,
        "zip_code": "11211"
    },
    {
        "id": "KkAtVVjnMfb1vGlcpzmhgw",
        "cuisine": "american",
        "name": "Sweet Brooklyn Bar And Grill",
        "address": "608 Nostrand Ave",
        "latitude": 40.6778662988215,
        "longitude": -73.9500002190471,
        "review_count": 385,
        "rating": 4.0,
        "zip_code": "11216"
    },
    {
        "id": "kMxXLrASxsbmS-ZzAaBe-A",
        "cuisine": "american",
        "name": "Molly's",
        "address": "287 3rd Ave",
        "latitude": 40.73825,
        "longitude": -73.98321,
        "review_count": 515,
        "rating": 4.0,
        "zip_code": "10010"
    },
    {
        "id": "bSdguSmgdkPBfmD0bPUYKg",
        "cuisine": "american",
        "name": "Jane's Eatery",
        "address": "215-05 Northern Blvd",
        "latitude": 40.760835,
        "longitude": -73.7673823535442,
        "review_count": 293,
        "rating": 4.5,
        "zip_code": "11361"
    },
    {
        "id": "RKAK9AuzKR7K36ABcXPjTA",
        "cuisine": "american",
        "name": "CC's Cafe",
        "address": "41 Monroe St",
        "latitude": 40.71166,
        "longitude": -73.99452,
        "review_count": 143,
        "rating": 4.5,
        "zip_code": "10002"
    },
    {
        "id": "_-Gb3IAx74cyka9yTOb_oA",
        "cuisine": "american",
        "name": "ASSET",
        "address": "329 Columbus Ave",
        "latitude": 40.77948,
        "longitude": -73.97705,
        "review_count": 64,
        "rating": 4.0,
        "zip_code": "10023"
    },
    {
        "id": "dc3hkLkAqCSxDWQzrx-g9A",
        "cuisine": "american",
        "name": "Quality Italian",
        "address": "57 W 57th St",
        "latitude": 40.7644044527436,
        "longitude": -73.9767805051616,
        "review_count": 1069,
        "rating": 4.0,
        "zip_code": "10019"
    },
    {
        "id": "xiyNuUlD9tennjAzMoon8w",
        "cuisine": "american",
        "name": "Bobwhite Counter",
        "address": "150 Warren St",
        "latitude": 40.7123084568659,
        "longitude": -74.0398424590443,
        "review_count": 82,
        "rating": 5.0,
        "zip_code": "07302"
    },
    {
        "id": "FJepPR5CYRggxRwAjlqg6A",
        "cuisine": "american",
        "name": "Bowery Road",
        "address": "132 4th Ave",
        "latitude": 40.7333427,
        "longitude": -73.9901924,
        "review_count": 220,
        "rating": 4.0,
        "zip_code": "10003"
    },
    {
        "id": "Lw044EfH1h3XhUhri3ExfA",
        "cuisine": "american",
        "name": "BLACKBARN",
        "address": "19 E 26th St",
        "latitude": 40.7431036278527,
        "longitude": -73.9870538457459,
        "review_count": 604,
        "rating": 4.0,
        "zip_code": "10010"
    },
    {
        "id": "h5WkewI6U7NjLB_n6WgdvQ",
        "cuisine": "american",
        "name": "HandCraft Kitchen & Cocktails",
        "address": "367 3rd Ave",
        "latitude": 40.740967,
        "longitude": -73.981292,
        "review_count": 393,
        "rating": 4.0,
        "zip_code": "10016"
    },
    {
        "id": "vYLO6I4-xETxJc5to07GPw",
        "cuisine": "american",
        "name": "Ten Hope",
        "address": "10 Hope St",
        "latitude": 40.713658,
        "longitude": -73.957576,
        "review_count": 59,
        "rating": 4.0,
        "zip_code": "11211"
    },
    {
        "id": "TDyu1-6XF7r1jc13j7nDNA",
        "cuisine": "american",
        "name": "T\u00d8RST",
        "address": "615 Manhattan Ave",
        "latitude": 40.7233949,
        "longitude": -73.950856,
        "review_count": 399,
        "rating": 4.5,
        "zip_code": "11222"
    },
    {
        "id": "13_1t_3MtLn-Y5ZBKHrmww",
        "cuisine": "american",
        "name": "Louie's Chicken",
        "address": "1026 2nd Ave",
        "latitude": 40.757416,
        "longitude": -73.966329,
        "review_count": 50,
        "rating": 4.5,
        "zip_code": "10022"
    },
    {
        "id": "s3jou_L_LVYGkNHiuhjlew",
        "cuisine": "american",
        "name": "Boucherie West Village",
        "address": "99 7th Ave S",
        "latitude": 40.733063,
        "longitude": -74.0028772,
        "review_count": 1496,
        "rating": 4.5,
        "zip_code": "10014"
    },
    {
        "id": "JagEH-imezk2KbM3RNDbXg",
        "cuisine": "american",
        "name": "Fools Gold NYC",
        "address": "145 E Houston St",
        "latitude": 40.7231079,
        "longitude": -73.9897536,
        "review_count": 315,
        "rating": 4.0,
        "zip_code": "10002"
    },
    {
        "id": "Q8hSVPwPaGAq86G3-T6V1g",
        "cuisine": "american",
        "name": "Cafe Gossip",
        "address": "2338 Coney Island Ave",
        "latitude": 40.5999618,
        "longitude": -73.961556,
        "review_count": 1,
        "rating": 5.0,
        "zip_code": "11223"
    },
    {
        "id": "PYcL2z9gHj6-ZTlViT9Nqw",
        "cuisine": "american",
        "name": "Minetta Tavern",
        "address": "113 Macdougal St",
        "latitude": 40.7300047976758,
        "longitude": -74.0006073834151,
        "review_count": 2200,
        "rating": 4.0,
        "zip_code": "10012"
    },
    {
        "id": "iNiq1vgWpEa48jlPAce8wQ",
        "cuisine": "american",
        "name": "The Thirsty Koala",
        "address": "35-12 Ditmars Blvd",
        "latitude": 40.774416,
        "longitude": -73.908739,
        "review_count": 1098,
        "rating": 4.5,
        "zip_code": "11105"
    },
    {
        "id": "4PeBRQZgHMW80J5YIaT39A",
        "cuisine": "american",
        "name": "The Loyal",
        "address": "289 Bleecker St",
        "latitude": 40.7321627859791,
        "longitude": -74.0033025943349,
        "review_count": 208,
        "rating": 4.0,
        "zip_code": "10014"
    },
    {
        "id": "2_oy2iBeT0Rg-oz4f0GF1A",
        "cuisine": "american",
        "name": "The Jeffrey Craft Beer & Bites",
        "address": "311 E 60th St",
        "latitude": 40.7611,
        "longitude": -73.963,
        "review_count": 680,
        "rating": 4.0,
        "zip_code": "10022"
    },
    {
        "id": "5grFfuYswh8K9GoEnOy81A",
        "cuisine": "american",
        "name": "Bierocracy",
        "address": "12-23 Jackson Ave",
        "latitude": 40.74402,
        "longitude": -73.95028,
        "review_count": 307,
        "rating": 4.0,
        "zip_code": "11101"
    },
    {
        "id": "BSv3awhABROYjjwlQaQ-Qw",
        "cuisine": "american",
        "name": "Tiny's & The Bar Upstairs",
        "address": "135 W Broadway",
        "latitude": 40.716698,
        "longitude": -74.00816,
        "review_count": 586,
        "rating": 4.0,
        "zip_code": "10013"
    },
    {
        "id": "GqdL3ASdaz7IfXn3WJ5Nyw",
        "cuisine": "american",
        "name": "Sloppie Joe\u2019s",
        "address": "541 Central Park Ave",
        "latitude": 40.921272,
        "longitude": -73.8648208,
        "review_count": 32,
        "rating": 5.0,
        "zip_code": "10704"
    },
    {
        "id": "DIxCBcbfu0ABFnm4SNk5OQ",
        "cuisine": "american",
        "name": "Brad's Burgers & Bbq",
        "address": "522 Columbus Ave",
        "latitude": 40.78609,
        "longitude": -73.97266,
        "review_count": 72,
        "rating": 4.0,
        "zip_code": "10024"
    },
    {
        "id": "NVp1S29NLR573Lc4ZvICKw",
        "cuisine": "american",
        "name": "Forest Hills Station House",
        "address": "106-11 71st Ave",
        "latitude": 40.7200567,
        "longitude": -73.8452604,
        "review_count": 1111,
        "rating": 4.0,
        "zip_code": "11375"
    },
    {
        "id": "204fu_NmR6TK_s1FMXN6og",
        "cuisine": "american",
        "name": "Abe's Pagoda Bar",
        "address": "108 Wyckoff Ave",
        "latitude": 40.7039301086121,
        "longitude": -73.9188500493765,
        "review_count": 45,
        "rating": 4.5,
        "zip_code": "11237"
    },
    {
        "id": "ts8AI4LsReeu_rMJ5-AeQg",
        "cuisine": "american",
        "name": "Avenue C Restaurant",
        "address": "102 Avenue C",
        "latitude": 40.7238771589342,
        "longitude": -73.9788588405229,
        "review_count": 18,
        "rating": 5.0,
        "zip_code": "10009"
    },
    {
        "id": "tS57VDB7MA81rzOsQkTrmw",
        "cuisine": "american",
        "name": "Greenwich Street Tavern",
        "address": "399 Greenwich St",
        "latitude": 40.720839,
        "longitude": -74.0096888,
        "review_count": 121,
        "rating": 4.0,
        "zip_code": "10013"
    },
    {
        "id": "hk3ohp_A4L4UgWTexDxf_Q",
        "cuisine": "american",
        "name": "Gallaghers Steakhouse",
        "address": "228 W 52nd St",
        "latitude": 40.762876,
        "longitude": -73.983837,
        "review_count": 1202,
        "rating": 4.0,
        "zip_code": "10019"
    },
    {
        "id": "L7_MTRZyYp_i-cnH2CU4zQ",
        "cuisine": "american",
        "name": "Dudley's",
        "address": "85 Orchard St",
        "latitude": 40.71798,
        "longitude": -73.99042,
        "review_count": 740,
        "rating": 4.0,
        "zip_code": "10002"
    },
    {
        "id": "47_jHPl3p4-OYGCVLy2ZIA",
        "cuisine": "american",
        "name": "Salvatoria Kitchen & Bar",
        "address": "31-18 Broadway",
        "latitude": 40.76142,
        "longitude": -73.92486,
        "review_count": 195,
        "rating": 4.5,
        "zip_code": "11106"
    },
    {
        "id": "kDJbzzmCEjFbyDQ-lSygvw",
        "cuisine": "american",
        "name": "Fresh Salt",
        "address": "146 Beekman St",
        "latitude": 40.70707,
        "longitude": -74.00244,
        "review_count": 396,
        "rating": 4.0,
        "zip_code": "10038"
    },
    {
        "id": "Cq0_y25K4r60gUP0JeHRDQ",
        "cuisine": "american",
        "name": "The Orchard Townhouse",
        "address": "242 10th Ave",
        "latitude": 40.74839,
        "longitude": -74.00344,
        "review_count": 25,
        "rating": 4.0,
        "zip_code": "10001"
    },
    {
        "id": "h8XLhVVPoYPYodZqQOjRMw",
        "cuisine": "american",
        "name": "Robert",
        "address": "2 Columbus Cir",
        "latitude": 40.767394,
        "longitude": -73.982036,
        "review_count": 920,
        "rating": 4.0,
        "zip_code": "10019"
    },
    {
        "id": "CpZ5fw9rxHOdLmdtW1Qdbw",
        "cuisine": "american",
        "name": "Arcadia Bar & Kitchen",
        "address": "12-21 Astoria Blvd",
        "latitude": 40.77235,
        "longitude": -73.92922,
        "review_count": 100,
        "rating": 4.5,
        "zip_code": "11102"
    },
    {
        "id": "Q6quwwLiwx_47SRd3tItvA",
        "cuisine": "american",
        "name": "Schaller's Stube Sausage Bar",
        "address": "1652 2nd Ave",
        "latitude": 40.777544,
        "longitude": -73.951607,
        "review_count": 207,
        "rating": 4.0,
        "zip_code": "10028"
    },
    {
        "id": "eHcQP7EGKoPPSHDNm1oQaA",
        "cuisine": "american",
        "name": "Fine Food Cuisine",
        "address": "671 Morris Park Ave",
        "latitude": 40.84519,
        "longitude": -73.86704,
        "review_count": 76,
        "rating": 4.5,
        "zip_code": "10462"
    },
    {
        "id": "4pkQohExoYIGYjCsfKJA8Q",
        "cuisine": "american",
        "name": "Zoe's Place",
        "address": "38-70 10th St",
        "latitude": 40.7573116,
        "longitude": -73.9442069,
        "review_count": 9,
        "rating": 4.5,
        "zip_code": "11101"
    },
    {
        "id": "VvsZAnEwU4c8Xkyrzx05Nw",
        "cuisine": "american",
        "name": "Anytime",
        "address": "23 W 32nd St",
        "latitude": 40.74779,
        "longitude": -73.98674,
        "review_count": 1415,
        "rating": 4.5,
        "zip_code": "10001"
    },
    {
        "id": "iexl39DYyy_76Xq3ExaJkQ",
        "cuisine": "american",
        "name": "Excuse My French",
        "address": "96 Orchard St",
        "latitude": 40.71844,
        "longitude": -73.98981,
        "review_count": 289,
        "rating": 4.5,
        "zip_code": "10002"
    },
    {
        "id": "5NdHeWLgrXhIySx9ogCNQg",
        "cuisine": "american",
        "name": "Upright",
        "address": "547 Hudson St",
        "latitude": 40.73493,
        "longitude": -74.00641,
        "review_count": 232,
        "rating": 4.0,
        "zip_code": "10014"
    },
    {
        "id": "QpkKEFHK5dz8XT-osEXgJw",
        "cuisine": "american",
        "name": "The Grey Dog",
        "address": "242 W 16th St",
        "latitude": 40.740624,
        "longitude": -74.000648,
        "review_count": 1110,
        "rating": 4.0,
        "zip_code": "10011"
    },
    {
        "id": "W0sXHSSpkiMEDJiBmSLNYQ",
        "cuisine": "american",
        "name": "Trestle",
        "address": "34-02 Broadway",
        "latitude": 40.7606154,
        "longitude": -73.9229562,
        "review_count": 358,
        "rating": 4.5,
        "zip_code": "11106"
    },
    {
        "id": "wP0s8Jv2eFRMfjFj7isYUw",
        "cuisine": "american",
        "name": "Mulberry & Vine",
        "address": "73 Warren St",
        "latitude": 40.7150751,
        "longitude": -74.0101342,
        "review_count": 317,
        "rating": 4.0,
        "zip_code": "10007"
    },
    {
        "id": "0moBSyrTezcT3uePV74nug",
        "cuisine": "american",
        "name": "Westville Hell's Kitchen",
        "address": "809 9th Ave",
        "latitude": 40.76577,
        "longitude": -73.9875,
        "review_count": 134,
        "rating": 4.5,
        "zip_code": "10019"
    },
    {
        "id": "cBC55mBdY_1Zj7dfVeWWQg",
        "cuisine": "american",
        "name": "Bar Basic",
        "address": "71 7th Ave",
        "latitude": 40.67515,
        "longitude": -73.97467,
        "review_count": 98,
        "rating": 4.0,
        "zip_code": "11217"
    },
    {
        "id": "qCf1QN11Qdncpqb7PhuyVw",
        "cuisine": "american",
        "name": "The Rag Trader & Bo Peep Cocktail and Highball Store",
        "address": "70 W 36th St",
        "latitude": 40.75059,
        "longitude": -73.98628,
        "review_count": 451,
        "rating": 4.5,
        "zip_code": "10018"
    },
    {
        "id": "KenUip4W38fN4Ua9WxsohA",
        "cuisine": "american",
        "name": "Bohemien Bar",
        "address": "97 Atlantic Ave",
        "latitude": 40.691232,
        "longitude": -73.997031,
        "review_count": 9,
        "rating": 4.0,
        "zip_code": "11201"
    },
    {
        "id": "nMWqlWid2YfDeutioit_0w",
        "cuisine": "american",
        "name": "Bill's Bar & Burger",
        "address": "16 W 51st St",
        "latitude": 40.7594983,
        "longitude": -73.977956,
        "review_count": 1256,
        "rating": 3.5,
        "zip_code": "10019"
    },
    {
        "id": "Y_8ZwQYDznZX1-rs_wm6RQ",
        "cuisine": "american",
        "name": "Lion's Head Tavern",
        "address": "995 Amsterdam Ave",
        "latitude": 40.80214,
        "longitude": -73.96406,
        "review_count": 224,
        "rating": 4.0,
        "zip_code": "10025"
    },
    {
        "id": "NdvmQ8VoLUIZyFpApZOXUA",
        "cuisine": "american",
        "name": "Allswell",
        "address": "124 Bedford Ave",
        "latitude": 40.71967,
        "longitude": -73.955996,
        "review_count": 375,
        "rating": 3.5,
        "zip_code": "11211"
    },